"start_station_name","start_lat","start_lng","total_trips"
Streeter Dr & Grand Ave,41.89228159665137,-87.61207563950092,69097
DuSable Lake Shore Dr & Monroe St,41.880991416027946,-87.61676813812875,38895
Michigan Ave & Oak St,41.9009691749168,-87.62376654346181,37093
DuSable Lake Shore Dr & North Blvd,41.911710582260845,-87.6268273943826,36864
Wells St & Concord Ln,41.912097726062505,-87.63472339411017,34321
Clark St & Elm St,41.902920021373355,-87.63140328681502,33250
Millennium Park,41.881078509755774,-87.62409881029141,32116
Kingsbury St & Kinzie St,41.88917380756027,-87.63850971943168,32093
Theater on the Lake,41.92626372835128,-87.63088015325046,30927
Wells St & Elm St,41.90317766991142,-87.63444011538166,29099
Broadway & Barry Ave,41.9376116645103,-87.64410479167087,27432
Clinton St & Washington Blvd,41.883378035524835,-87.64124854683855,26866
Clark St & Armitage Ave,41.91830716217382,-87.63630700412513,26698
Indiana Ave & Roosevelt Rd,41.86790561784958,-87.62304381600781,26057
Clinton St & Madison St,41.882456429057356,-87.64115440191782,25147
Wabash Ave & Grand Ave,41.8914461833209,-87.62675668358992,25131
Wilton Ave & Belmont Ave,41.940174837467254,-87.65298048832773,25078
Clark St & Lincoln Ave,41.91570436056229,-87.6346119830704,24880
University Ave & 57th St,41.79147947319202,-87.59987706772394,24760
Clark St & Wrightwood Ave,41.929562436026174,-87.64314248525115,24209
Wells St & Huron St,41.89474117433939,-87.63439486184332,24120
Ellis Ave & 60th St,41.785103566191594,-87.60107801157795,23945
Dearborn St & Erie St,41.8940337034646,-87.62931865256166,23882
Shedd Aquarium,41.86724506208368,-87.61538464378127,23621
St. Clair St & Erie St,41.89432862823632,-87.62279586603121,23169
Canal St & Adams St,41.87931390276356,-87.63995266002816,22855
Wells St & Hubbard St,41.88994415783128,-87.63428863776991,22788
Loomis St & Lexington St,41.8722075040689,-87.6614328469806,22719
LaSalle St & Illinois St,41.89078976780069,-87.63169641926838,22614
Sheffield Ave & Fullerton Ave,41.9255920096225,-87.65371135654108,22346
Michigan Ave & Washington St,41.88396753236006,-87.62458833191883,22269
State St & Chicago Ave,41.89663325143145,-87.62862221967742,22099
Clark St & Newport St,41.9445186808883,-87.65471392011291,21703
Michigan Ave & Lake St,41.8859917601333,-87.62430597514604,21316
Clark St & Drummond Pl,41.9312461131843,-87.64430715427876,21238
Ashland Ave & Division St,41.90339924388073,-87.66781032777133,21203
DuSable Lake Shore Dr & Diversey Pkwy,41.93257903712571,-87.63643008145944,20941
Larrabee St & Webster Ave,41.92182363851723,-87.64410887296005,20926
Broadway & Waveland Ave,41.94905746794675,-87.64862146072063,20906
Green St & Madison St,41.88187465673482,-87.6489499413436,20891
Lincoln Ave & Fullerton Ave,41.9241641548371,-87.646377289633,20765
Dearborn Pkwy & Delaware Pl,41.89895323625217,-87.62991586221362,20503
Wabash Ave & Roosevelt Rd,41.86721342499204,-87.62599163888859,20354
Halsted St & Clybourn Ave,41.9096413975839,-87.64814160457827,20293
McClurg Ct & Ohio St,41.892608519336065,-87.61732248509973,20242
Lakeview Ave & Fullerton Pkwy,41.92585986432179,-87.63896929116034,20172
New St & Illinois St,41.890800825624,-87.6185332166499,19953
Damen Ave & Pierce Ave,41.90939873166539,-87.67769214757465,19905
Broadway & Cornelia Ave,41.94552030293609,-87.64646132183931,19799
Halsted St & Roscoe St,41.94365976931066,-87.64894322194603,19757
Desplaines St & Kinzie St,41.88865596376922,-87.64443493828095,19752
Sheffield Ave & Waveland Ave,41.94932004866706,-87.65449646906707,19405
Clinton St & Jackson Blvd,41.8783442972288,-87.64109302062295,19135
Montrose Harbor,41.96397435773336,-87.63818502953805,19134
Pine Grove Ave & Waveland Ave,41.94941938304488,-87.64646162464969,19036
Southport Ave & Roscoe St,41.943711776577324,-87.6640116949998,19034
Halsted St & Wrightwood Ave,41.92913930904503,-87.6491024399216,18993
Larrabee St & Kingsbury St,41.89771374417344,-87.64302564135858,18758
Wells St & Evergreen Ave,41.90671408786472,-87.63495243748608,18635
DuSable Lake Shore Dr & Belmont Ave,41.94074942724007,-87.6391960132634,18552
Ellis Ave & 55th St,41.79430569863314,-87.60145091818754,18526
Dusable Harbor,41.886973692779364,-87.61283517607427,18251
Clark St & Schiller St,41.90800271314201,-87.63152904413818,18184
Fairbanks Ct & Grand Ave,41.89188237016493,-87.62062047726937,17854
Southport Ave & Waveland Ave,41.948127250286895,-87.66398249813204,17842
DuSable Lake Shore Dr & Wellington Ave,41.93668755924413,-87.63683287652455,17698
Sheridan Rd & Irving Park Rd,41.954237109444016,-87.65441600797101,17637
Columbus Dr & Randolph St,41.88465367648734,-87.61954680090216,17551
Clinton St & Lake St,41.885565398726335,-87.64185431914974,17424
Orleans St & Merchandise Mart Plaza,41.88811539310039,-87.63663380393172,17423
Morgan St & Polk St,41.87186709678866,-87.65102578348439,17330
Halsted St & Polk St,41.87182586776556,-87.64663589095431,17299
Dearborn St & Monroe St,41.88113931428855,-87.62963104579386,17249
Kingsbury St & Erie St,41.8938275366652,-87.64173499912707,17214
State St & Randolph St,41.884618582741616,-87.62789491481955,17206
Sheffield Ave & Webster Ave,41.92161778784684,-87.65381253771702,17142
Peoria St & Jackson Blvd,41.87765553754653,-87.6495511424223,17123
Michigan Ave & 8th St,41.87271077034901,-87.62398717102081,16957
Sheffield Ave & Wellington Ave,41.936273456346456,-87.65266076023578,16940
Federal St & Polk St,41.87210397718722,-87.62958565428144,16774
Wilton Ave & Diversey Pkwy,41.932421106085926,-87.65270036720783,16289
Franklin St & Jackson Blvd,41.877739572406206,-87.63529425978855,16136
Clark St & Wellington Ave,41.936496166224686,-87.64756551710477,16005
Sheffield Ave & Wrightwood Ave,41.92869707209872,-87.65382575135648,15972
Kimbark Ave & 53rd St,41.79958189954472,-87.59475034358866,15661
Franklin St & Chicago Ave,41.896763639880206,-87.63570506843534,15638
Rush St & Cedar St,41.90234204716117,-87.62775566500703,15616
Broadway & Belmont Ave,41.94009203801172,-87.64547698404394,15550
Halsted St & Dickens Ave,41.91994384846254,-87.6488453082157,15461
State St & 33rd St,41.83472596296295,-87.62580993099185,15446
Adler Planetarium,41.86610783175563,-87.60730076208988,15432
Daley Center Plaza,41.88419781828974,-87.62961616706744,15330
Stockton Dr & Wrightwood Ave,41.93131784794651,-87.63873286671382,15159
Ravenswood Ave & Lawrence Ave,41.96909402882944,-87.6742364234151,15156
Clark St & Lake St,41.88598096779012,-87.63092921041901,15084
Canal St & Madison St,41.882232743739394,-87.63980623524581,14997
State St & Kinzie St,41.88916042917573,-87.62717870880198,14950
Franklin St & Monroe St,41.88019926966574,-87.6353352846335,14833
Pine Grove Ave & Irving Park Rd,41.954368414639596,-87.64805855668328,14691
Broadway & Sheridan Rd,41.952787885819816,-87.65000627237625,14548
McClurg Ct & Erie St,41.894505928084385,-87.61799277200325,14525
Sedgwick St & North Ave,41.91136917139785,-87.63868382206034,14413
Rush St & Superior St,41.895745669536915,-87.62601115955863,14397
Franklin St & Lake St,41.88583592423926,-87.63548983053596,14373
Mies van der Rohe Way & Chicago Ave,41.897006853050776,-87.62174413403518,14341
Mies van der Rohe Way & Chestnut St,41.89857785069056,-87.62208445954103,14332
Clark St & Winnemac Ave,41.97333937478355,-87.66784171537127,14279
LaSalle St & Jackson Blvd,41.87811286231822,-87.6318624808628,14160
Clark St & Randolph St,41.88458233604326,-87.63180406744031,14141
Wabash Ave & 9th St,41.87074070988532,-87.62574286153288,13980
Milwaukee Ave & Grand Ave,41.89158737658526,-87.64833560319065,13976
Sheridan Rd & Montrose Ave,41.96162878413776,-87.65463971769026,13917
Lincoln Ave & Diversey Pkwy,41.932201799777644,-87.65866415690603,13737
Sedgwick St & Webster Ave,41.92216836613146,-87.63891667224208,13617
Canal St & Monroe St,41.88168088288515,-87.63950862446104,13580
May St & Taylor St,41.86947459531267,-87.65547610188217,13569
Burling St & Diversey Pkwy,41.933123372988604,-87.64776584641405,13448
Wood St & Milwaukee Ave,41.90764715693224,-87.67254319373218,13162
Clarendon Ave & Gordon Ter,41.957835886523206,-87.64950609288324,13126
Racine Ave & Belmont Ave,41.939707053011034,-87.65887036950436,13092
Franklin St & Illinois St,41.89101345522623,-87.63546455500422,13012
Sheffield Ave & Kingsbury St,41.91055635723827,-87.65313958457047,12908
Sedgwick St & Huron St,41.894660601965676,-87.63837659024212,12862
Aberdeen St & Jackson Blvd,41.87773616040381,-87.65481262305795,12734
"900 W Harrison St",41.87475214227763,-87.64980753983856,12691
Michigan Ave & Jackson Blvd,41.877840187899714,-87.624084475971,12600
Clark St & Grace St,41.95081398823837,-87.65917926333118,12568
Southport Ave & Wellington Ave,41.93570458992575,-87.6636124992047,12444
Canal St & Jackson Blvd,41.877268399041526,-87.63941361174702,12290
Racine Ave & Fullerton Ave,41.925581965276365,-87.65844621372244,12282
Lakefront Trail & Bryn Mawr Ave,41.98403608969665,-87.6522996207274,12194
Wabash Ave & Wacker Pl,41.88686188267473,-87.62608120017882,12192
Kedzie Ave & Milwaukee Ave,41.9295846865255,-87.70789375853575,12157
Bissell St & Armitage Ave*,41.918356177455884,-87.65220298568644,11991
Greenview Ave & Fullerton Ave,41.92536575958227,-87.66581754972238,11926
Clark St & North Ave,41.91196160752208,-87.6319860268501,11897
Lincoln Park Conservatory,41.923967948184604,-87.6358463139668,11876
Southport Ave & Belmont Ave,41.939447633521944,-87.66376973281962,11782
Ogden Ave & Chicago Ave,41.89636296740367,-87.65407358718016,11640
Sangamon St & Lake St,41.88581959152375,-87.65105011125469,11567
LaSalle Dr & Huron St,41.89481450943929,-87.63232965037558,11488
Milwaukee Ave & Wabansia Ave,41.91261362878347,-87.68138846595296,11467
Field Blvd & South Water St,41.886269322006825,-87.61751456752943,11425
Desplaines St & Jackson Blvd,41.87812118699008,-87.64404099253744,11391
Honore St & Division St,41.90312270977175,-87.67389133315869,11385
Cityfront Plaza Dr & Pioneer Ct,41.890521062364925,-87.62206258804503,11362
Larrabee St & Division St,41.90350244684336,-87.64334503260466,11352
Ritchie Ct & Banks St,41.90685725052654,-87.62619728246823,11329
Southport Ave & Wrightwood Ave,41.928782318917,-87.66389753887829,11190
California Ave & Milwaukee Ave,41.922686921366676,-87.69714548434035,11155
Clark St & Chicago Ave,41.896717945450646,-87.63087008058751,11114
Wolcott Ave & Polk St,41.87129428095312,-87.67368610754977,11113
Michigan Ave & 14th St,41.86412940167818,-87.62372409421728,11112
Halsted St & Maxwell St,41.864874970043594,-87.64708037493565,10992
Damen Ave & Cortland St,41.9159832957221,-87.6773209986746,10961
Halsted St & Willow St,41.91385118127721,-87.64877608337693,10960
Stetson Ave & South Water St,41.8867295400681,-87.62226666761508,10890
Dayton St & North Ave,41.91059416253594,-87.64942578127079,10837
Desplaines St & Randolph St,41.88460553529343,-87.64454071176725,10711
Clarendon Ave & Junior Ter,41.960989695300185,-87.64957166802174,10688
Clark St & Berwyn Ave,41.97798953776233,-87.66831964050614,10623
Carpenter St & Huron St,41.894547522980865,-87.65344961586959,10583
Aberdeen St & Randolph St,41.88412784034424,-87.65427236748224,10517
Shore Dr & 55th St,41.795247943511036,-87.58078416895418,10459
Sheffield Ave & Willow St,41.913714298125115,-87.6528498329105,10370
Wells St & Walton St,41.899930218635504,-87.63444885275973,10346
MLK Jr Dr & 29th St,41.84203275791109,-87.61697509816688,10212
Wells St & Polk St,41.87275610533641,-87.63365888096484,10030
Rush St & Hubbard St,41.890176765676486,-87.62621977237204,9980
Michigan Ave & Madison St,41.882071409192214,-87.62514244067003,9957
Burnham Harbor,41.85744855814877,-87.6138322993964,9913
Michigan Ave & Pearson St,41.89751727750731,-87.62353015324727,9878
Western Ave & Winnebago Ave,41.91554977536673,-87.68702541965924,9778
Damen Ave & Chicago Ave,41.89570027223991,-87.67716090800452,9681
Clifton Ave & Armitage Ave,41.918212182724815,-87.65697157917465,9645
Franklin St & Adams St (Temp),41.87928686191563,-87.63551981249003,9631
State St & Van Buren St,41.8771515171658,-87.62787170864304,9575
Michigan Ave & 18th St,41.857846295968706,-87.62455944148792,9552
Wacker Dr & Washington St,41.883162908646135,-87.63729291974197,9539
Wabash Ave & Adams St,41.87949681474603,-87.62572433339767,9463
Ellis Ave & 58th St,41.78874147098254,-87.60132390522739,9448
Aberdeen St & Monroe St,41.88041563827264,-87.65557226780588,9442
Sheridan Rd & Buena Ave,41.958495444879695,-87.65499984888766,9357
Southport Ave & Clybourn Ave,41.92076759243677,-87.66373746399304,9349
Field Museum,41.865329572625235,-87.61794073705543,9294
Clark St & Leland Ave,41.967084906862674,-87.66729778575426,9118
Wentworth Ave & Cermak Rd,41.853117444121565,-87.63191702460207,9012
Financial Pl & Ida B Wells Dr,41.87503432226151,-87.63310932995769,8962
Orleans St & Chestnut St (NEXT Apts),41.898165998784734,-87.63755057579485,8957
Calumet Ave & 33rd St,41.83487381425732,-87.61792808699555,8953
Jefferson St & Monroe St,41.880349798635656,-87.64274800926866,8916
Dearborn St & Adams St,41.87924105270711,-87.62973467987473,8870
Halsted St & Roosevelt Rd,41.86735689100051,-87.6486360100598,8862
Paulina St & Flournoy St,41.873018522920674,-87.66909162148983,8804
Ogden Ave & Race Ave,41.89179153753419,-87.6587880590153,8797
Sangamon St & Washington Blvd,41.88308553486464,-87.65109883557199,8676
Woodlawn Ave & 55th St,41.79527671593051,-87.59648319338801,8666
Green St & Randolph St*,41.88360089651349,-87.64858395299005,8643
Ashland Ave & Blackhawk St,41.90703453343243,-87.66724526451584,8612
Elston Ave & Cortland St,41.91643841843677,-87.66674921419299,8590
Clinton St & Roosevelt Rd,41.86712450322604,-87.64107173186014,8360
Larrabee St & Armitage Ave,41.91809314451795,-87.64375221712328,8343
Orleans St & Hubbard St,41.88997011579439,-87.63663203624023,8336
Eckhart Park,41.8963793896964,-87.66099729780362,8333
Racine Ave & Congress Pkwy,41.874639162535594,-87.657033695367,8253
Wabash Ave & 16th St,41.86039210806737,-87.62582127953715,8215
Lakefront Trail & Wilson Ave,41.96583432850124,-87.64539412830503,8204
Calumet Ave & 18th St,41.857671951672984,-87.61955308677493,8112
LaSalle St & Washington St,41.882671639820664,-87.63252401674082,8079
Clark St & Bryn Mawr Ave,41.983561440293215,-87.66917944003738,8063
Damen Ave & Division St,41.90324878666247,-87.67845768588624,7974
Fort Dearborn Dr & 31st St,41.83854477817554,-87.60821814123612,7843
Broadway & Argyle St,41.97378064168483,-87.65972741021812,7802
Paulina Ave & North Ave,41.91008245256028,-87.67000490524298,7695
Throop St & Taylor St,41.86890426293554,-87.65912818544692,7688
Walsh Park,41.9145802885773,-87.66796273529944,7679
Southport Ave & Irving Park Rd,41.95415649315206,-87.66431938532637,7639
Larrabee St & Oak St,41.900232712560886,-87.64298840884534,7596
Damen Ave & Thomas St (Augusta Blvd),41.90133124908699,-87.67742996984856,7589
Racine Ave & Wrightwood Ave,41.928895544315004,-87.65898046028859,7575
Lincoln Ave & Belmont Ave (Temp),41.939490762946356,-87.67108971573748,7569
Lake Park Ave & 56th St,41.79325233299692,-87.58779166887699,7514
Ada St & Washington Blvd,41.8828350746237,-87.66119204998475,7469
Fairbanks St & Superior St,41.895762773949805,-87.62012894772776,7458
Broadway & Berwyn Ave,41.9783402345188,-87.65975649640333,7451
Cornell Ave & Hyde Park Blvd,41.802416511399535,-87.58690523897158,7444
Western Ave & Leland Ave,41.96641988976181,-87.68869415882315,7407
Noble St & Milwaukee Ave,41.90068939794921,-87.66260398113319,7366
Michigan Ave & Ida B Wells Dr,41.87622982773449,-87.62443671984525,7356
Clybourn Ave & Division St,41.90459707878862,-87.640567873498,7355
State St & Pearson St,41.8974425315792,-87.62873672594198,7321
State St & Harrison St,41.87402828308543,-87.6277109243681,7272
Buckingham Fountain,41.87608986987996,-87.62053574794112,7041
Broadway & Thorndale Ave,41.989754125470554,-87.66013750779842,6949
Western Ave & Walton St,41.89842825054181,-87.6865967945947,6915
Larrabee St & North Ave,41.91015529924397,-87.6435429924146,6908
Wood St & Chicago Ave,41.89562534703096,-87.67208655281756,6883
Ashland Ave & Grace St,41.95068373272344,-87.6686987257571,6837
Canal St & Taylor St,41.87022107945049,-87.63946772140619,6804
Clarendon Ave & Leland Ave,41.96792998296144,-87.65002262105843,6747
Lincoln Ave & Roscoe St*,41.94334537446031,-87.67072320317443,6719
Greenview Ave & Diversey Pkwy,41.93260055361374,-87.66594419825145,6711
Marine Dr & Ainslie St,41.971584040447844,-87.65018447552858,6705
Ashland Ave & Augusta Blvd,41.899610084124035,-87.66799914973122,6681
Lake Park Ave & 53rd St,41.79954164682212,-87.58644615590224,6651
Racine Ave & 18th St,41.85819179530536,-87.65648148548225,6639
Delano Ct & Roosevelt Rd,41.86749152658724,-87.63219632574842,6630
Broadway & Ridge Ave,41.984047043286004,-87.66027417549071,6542
Clark St & Montrose Ave,41.96155738002084,-87.66613138107672,6511
Clark St & Ida B Wells Dr,41.875948406421564,-87.63068140424849,6504
Ashland Ave & Wellington Ave,41.93606635311488,-87.66983790990632,6502
Leavitt St & North Ave,41.910347374507786,-87.68235960630918,6456
Broadway & Granville Ave,41.99477094439005,-87.66030796740857,6400
N Green St & W Lake St,41.88985353710433,-87.64994714856326,6378
Wood St & Taylor St (Temp),41.86932655648307,-87.67373476261223,6317
Emerald Ave & 31st St,41.838224318655286,-87.64513548351457,6251
Loomis St & Jackson Blvd,41.877945374195654,-87.66199631066867,6198
McCormick Place,41.851425605403406,-87.61884916220008,6129
Winthrop Ave & Lawrence Ave,41.9687898421846,-87.65764215574501,6119
Sheridan Rd & Lawrence Ave,41.96950800569971,-87.65470653350538,6087
Dearborn St & Van Buren St,41.876261289506985,-87.6292499014866,6064
Cannon Dr & Fullerton Ave,41.92674011228715,-87.63444253388661,6048
Green St & Washington Blvd,41.88319918719692,-87.64874874532404,5982
Seeley Ave & Roscoe St,41.94337801196192,-87.67963628016527,5922
Hermitage Ave & Polk St,41.87151672039344,-87.6698981790064,5853
California Ave & Cortez St,41.90037775284893,-87.69669163341001,5838
Harper Ave & 59th St,41.787944899821014,-87.58831045982365,5806
Rhodes Ave & 32nd St,41.836457686330206,-87.61347181593806,5797
Morgan St & Lake St*,41.88549701818156,-87.65231417191424,5783
Ashland Ave & Chicago Ave,41.89551134593954,-87.66769879838917,5739
Broadway & Wilson - Truman College Vaccination Site,41.96520973200921,-87.65822141602649,5666
Campbell Ave & North Ave,41.91053021032447,-87.68955550401434,5655
Lincoln Ave & Sunnyside Ave,41.96301839713124,-87.68480120972484,5629
Blue Island Ave & 18th St,41.85751079940263,-87.66157641731567,5598
Larrabee St & Menomonee St,41.9146756759464,-87.64334550841845,5560
Sheridan Rd & Noyes St (NU),42.0582144556118,-87.67744347128077,5546
Ashland Ave & Wrightwood Ave,41.92882830104444,-87.66852771752592,5508
Logan Blvd & Elston Ave,41.92945671294267,-87.6841694608937,5506
Wood St & Augusta Blvd,41.89917130539981,-87.67218905800028,5505
Western Ave & Fillmore St,41.868598634844766,-87.68624001641487,5498
Damen Ave & Charleston St,41.92006636592172,-87.6779014670348,5481
Racine Ave & Washington Blvd,41.88308232839904,-87.6569914697647,5453
Damen Ave & Grand Ave,41.89245310994958,-87.67691699705169,5449
Orleans St & Elm St,41.90291162920269,-87.63772372228016,5431
Ellis Ave & 53rd St,41.79934761745021,-87.60096695733387,5421
Lincoln Ave & Belle Plaine Ave,41.955967719940595,-87.68018961344879,5393
Damen Ave & Leland Ave,41.96708402110589,-87.6790546202145,5381
Ashland Ave & Grand Ave,41.891076170498444,-87.66664752882969,5380
Wolcott (Ravenswood) Ave & Montrose Ave,41.96138195202522,-87.6762119003031,5375
Racine Ave & Randolph St,41.88407903659118,-87.65689618247818,5371
Ravenswood Ave & Irving Park Rd,41.954652063853295,-87.67390435798436,5340
Clark St & 9th St (AMLI),41.87081128507342,-87.63120283545427,5335
State St & 35th St,41.83104802683976,-87.6268508399487,5320
Morgan St & 18th St,41.85812604875053,-87.6511017372648,5292
Western Ave & Division St,41.90290149774789,-87.68732237731831,5219
Leavitt St & Armitage Ave,41.917779350069345,-87.68245758064484,5180
Ashland Ave & Lake St,41.88592969153704,-87.66716954378994,5174
Benson Ave & Church St,42.04822132209293,-87.68347794454388,5007
Morgan Ave & 14th Pl,41.86239925836461,-87.65109778292195,4915
Albany Ave & Bloomingdale Ave,41.91401214534752,-87.70514151760223,4913
Damen Ave & Wellington Ave,41.93588238127989,-87.6784264318923,4782
Broadway & Wilson Ave,41.965216266147955,-87.65823463375996,4757
Spaulding Ave & Armitage Ave,41.91709052996548,-87.71023606577036,4729
Sheridan Rd & Argyle St,41.97329232502787,-87.654720977722,4690
Leavitt St & Division St,41.90299796012274,-87.68379138293076,4689
Humboldt Blvd & Armitage Ave,41.91752188806617,-87.70181473667134,4686
Leavitt St & Chicago Ave,41.895484194249086,-87.68198096445846,4675
LaSalle St & Adams St,41.87940150463968,-87.63196266195001,4669
Shields Ave & 31st St,41.83845065787631,-87.6353933264306,4599
Paulina St & 18th St,41.857912631660184,-87.66868155541397,4563
Blackstone Ave & Hyde Park Blvd,41.802592084815615,-87.59038010704518,4432
Morgan St & Lake St,41.885807457996265,-87.65104013867084,4399
Lincoln Ave & Waveland Ave,41.94878172042313,-87.67525953433238,4328
Clinton St & Tilden St,41.87587532342675,-87.64076113296123,4322
Damen Ave & Clybourn Ave,41.93191395578316,-87.67782300935863,4305
Milwaukee Ave & Rockwell St,41.92023255447639,-87.69267172926106,4262
California Ave & North Ave,41.910449624498014,-87.69696179599994,4262
Indiana Ave & 31st St,41.83882130848322,-87.6218596031339,4248
Damen Ave & Foster Ave,41.9756248195328,-87.6794560483937,4219
Chicago Ave & Sheridan Rd,42.050488022612356,-87.67781924453563,4218
Museum of Science and Industry,41.79173693627629,-87.58394783545442,4201
Wood St & Hubbard St,41.88988394475918,-87.67147956481423,4196
Sheridan Rd & Loyola Ave,42.00107936081179,-87.66123042222662,4162
Glenwood Ave & Morse Ave,42.007967535118446,-87.6654807343681,4115
Stave St & Armitage Ave,41.91774182432624,-87.69143955169835,4075
Calumet Ave & 21st St,41.85417026327011,-87.61918489766511,4050
Sedgwick St & Schiller St,41.90762764851934,-87.63853666618877,4036
Leavitt St & Belmont Ave,41.9393612789459,-87.68326104523184,3955
California Ave & Francis Pl (Temp),41.91852842730014,-87.69742729113133,3865
Ravenswood Ave & Berteau Ave,41.957893052477765,-87.67357897444924,3862
California Ave & Division St,41.90302905491706,-87.69749719458991,3846
Paulina St & Montrose Ave,41.96149708484863,-87.67141691245791,3832
Damen Ave & Sunnyside Ave,41.96324664435564,-87.67927768065154,3822
Kedzie Ave & Palmer Ct,41.92151615571875,-87.70731801240714,3753
Artesian Ave & Hubbard St,41.889543622098536,-87.68814129249108,3723
Damen Ave & Melrose Ave,41.9405439735316,-87.6785541126915,3648
Ashland Ave & 13th St,41.86524926206063,-87.66650592838349,3644
Lincoln Ave & Addison St,41.94616461273174,-87.67329993696299,3579
Halsted St & 18th St,41.85751789701294,-87.64604147230325,3552
Western Ave & Roscoe St,41.94304488219508,-87.68727963500693,3511
California Ave & Altgeld St,41.926657952293155,-87.69767799529617,3496
Western Ave & Congress Pkwy,41.87472297317749,-87.68644421605005,3441
Ogden Ave & Congress Pkwy,41.875007981325055,-87.67324896877815,3374
Wilton Ave & Diversey Pkwy*,41.932426217366064,-87.65271356063217,3359
Morgan St & 31st St,41.83778826082977,-87.65115560833812,3344
Clark St & Elmdale Ave,41.99075795199972,-87.66973967858173,3330
Wentworth Ave & 33rd St,41.83458382627083,-87.63189865195127,3329
Winchester Ave & Elston Ave,41.92407520771018,-87.67645177444359,3326
Wabash Ave & Cermak Rd,41.85261635477973,-87.62652520067321,3325
Southport Ave & Clark St,41.9570896741191,-87.66419975006772,3324
Racine Ave & Fullerton Ave (Temp),41.92516774505835,-87.65726512827035,3309
Talman Ave & Addison St,41.94663910958787,-87.69461206679104,3291
Greenview Ave & Jarvis Ave,42.015969065599705,-87.6685906509412,3224
St. Louis Ave & Fullerton Ave,41.924837290793555,-87.7144955464211,3219
Rockwell St & Eastwood Ave,41.96587703762211,-87.69365337174985,3205
Sheridan Rd & Columbia Ave,42.00456959243549,-87.66145204129029,3178
Canal St & Harrison St,41.87424516136408,-87.63958209614202,3173
Racine Ave & 15th St,41.86126826841,-87.65656191375768,3161
Elizabeth St & Fulton St,41.88672218034596,-87.65960182707114,3149
Clark St & Lunt Ave,42.009036970935355,-87.67419187316541,3140
California Ave & Montrose Ave,41.96105565896935,-87.69542585889623,3139
Ashland Ave & Belle Plaine Ave,41.95607262281289,-87.66885755514309,3121
Shields Ave & 28th Pl,41.842754859886305,-87.63551224021751,3077
Troy St & North Ave,41.90979475106205,-87.70531303754072,3070
California Ave & Fletcher St,41.938435705227874,-87.69800663018138,3058
Richmond St & Diversey Ave,41.93191704800738,-87.70122390398646,3040
Central Park Ave & Bloomingdale Ave,41.914165372747064,-87.71675864719687,3023
Elston Ave & Wabansia Ave,41.91292922900982,-87.66416478669848,2978
Clinton St & 18th St,41.85798882211246,-87.6408857792672,2974
Hampden Ct & Diversey Ave,41.93012814304003,-87.64013658893462,2960
Leavitt St & Addison St,41.946593528291274,-87.68338349371051,2942
Chicago Ave & Washington St,42.032491568973995,-87.67915080487238,2940
Damen Ave & Walnut (Lake) St,41.88597179603278,-87.67700915889482,2932
Calumet Ave & 35th St,41.83138164022207,-87.61803783408722,2930
Campbell Ave & Fullerton Ave,41.92463455821493,-87.68929299342159,2909
Clark St & Schreiber Ave,41.999021071147176,-87.67137160449765,2905
Leavitt St & Lawrence Ave,41.968884774658704,-87.68402292063274,2884
Claremont Ave & Hirsch St,41.907789496048146,-87.68586877962211,2863
Laflin St & Cullerton St,41.854868632375364,-87.663613742974,2854
Milwaukee Ave & Fullerton Ave,41.920212640825866,-87.70002555271058,2837
Damen Ave & Madison St,41.88139424139719,-87.67492070187713,2798
Elizabeth (May) St & Fulton St,41.88659838124464,-87.65823210361347,2775
University Library (NU),42.05293861130677,-87.67341363745825,2754
Campbell Ave & Montrose Ave,41.96154272953554,-87.6911784763645,2754
Washtenaw Ave & Lawrence Ave,41.96888169147005,-87.69609126236348,2752
Halsted St & 35th St,41.83062361414301,-87.6471295540436,2750
Emerald Ave & 28th St,41.84358238616298,-87.64539164706811,2711
Bissell St & Armitage Ave,41.91799406892019,-87.6521620494832,2678
Indiana Ave & 26th St,41.845676411031,-87.62252154325684,2663
Halsted St & Archer Ave,41.847154765155274,-87.64682237054663,2640
Damen Ave & Cullerton St,41.85500183864109,-87.6756549721084,2620
Lake Park Ave & 35th St,41.831299598141165,-87.60884258394432,2603
Central Park Ave & Elbridge Ave,41.93534636841526,-87.71686121113187,2591
State St & 19th St,41.85658084047325,-87.62754740032074,2562
Kosciuszko Park,41.9305628433323,-87.72380645865059,2467
May St & Cullerton St,41.8551725168171,-87.65415622045647,2455
W Oakdale Ave & N Broadway,41.93981827506648,-87.64016732174608,2450
Halsted St & Fulton St,41.8892517089264,-87.64955798032778,2413
N Carpenter St & W Lake St,41.88981365428381,-87.65013159975302,2408
Oakley Ave & Irving Park Rd,41.95431010908486,-87.68605126261484,2354
California Ave & Byron St,41.95216075119886,-87.69806067442164,2341
Lincoln Ave & Winona St,41.9748977149874,-87.69263775814541,2323
Lake Park Ave & 47th St,41.809444225726594,-87.5918699358995,2321
Paulina St & Howard St,42.01915452634743,-87.67356644313016,2298
Kimball Ave & Belmont Ave,41.93940334986426,-87.71177539281291,2295
Hoyne Ave & Balmoral Ave,41.9798763732645,-87.68194461807973,2294
Buckingham Fountain (Temp),41.86964143597874,-87.62397539161478,2264
Francisco Ave & Foster Ave,41.97564446880907,-87.70142640645882,2260
Spaulding Ave & Division St,41.902721137967944,-87.70921598378696,2241
W Armitage Ave & N Sheffield Ave,41.91988487434327,-87.6501833610794,2196
Greenwood Ave & 47th St,41.80982145556759,-87.59935818392601,2195
Western Ave & Monroe St,41.87980020202837,-87.68608689578984,2183
Clark St & Columbia Ave,42.00445422068724,-87.67240225942585,2174
Wells St & 19th St,41.85682168305806,-87.63389703699424,2173
Cherry Ave & Blackhawk St,41.90722705069285,-87.65564376274615,2141
Ogden Ave & Roosevelt Rd,41.86651038799403,-87.68461306125654,2122
Troy St & Elston Ave,41.945228561736045,-87.70666674336232,2097
Glenwood Ave & Touhy Ave,42.01273375474745,-87.66604561979241,2085
Halsted St & 21st St,41.853833831937976,-87.64659806778775,2057
Wells St & Institute Pl,41.897394909549696,-87.63444129582979,2045
Halsted St & North Branch St,41.89937462813357,-87.64853370028673,2010
Damen Ave & Wabansia Ave,41.910085908788005,-87.67989979888559,2002
Sheridan Rd & Greenleaf Ave,42.01058857000308,-87.66241106158216,1992
Wentworth Ave & 35th St,41.83078524262516,-87.63250268799878,1989
Avers Ave & Belmont Ave,41.93940706831484,-87.72356903487409,1963
Winchester (Ravenswood) Ave & Balmoral Ave,41.97972724332056,-87.67755904209916,1916
Wentworth Ave & 24th St (Temp),41.85007902827868,-87.63215066854403,1900
Albany Ave & Montrose Ave,41.961035605092114,-87.70585261664509,1888
Green St & Randolph St,41.88325088286602,-87.64878363366762,1877
Wood St & Webster Ave,41.921058435785774,-87.67280095590576,1858
Wallace St & 35th St,41.830675574337484,-87.64127351147418,1837
Avondale Ave & Irving Park Rd,41.95335771620363,-87.73195866413045,1836
Manor Ave & Leland Ave,41.96587316445685,-87.70082850689019,1820
Christiana Ave & Lawrence Ave,41.96835853366553,-87.71183596466427,1773
Bernard St & Elston Ave,41.949874846774186,-87.71391124346196,1760
Smith Park,41.89203155907469,-87.6893961562311,1709
Drake Ave & Addison St,41.94736186350569,-87.71759472809245,1691
Kedzie Ave & Leland Ave,41.966683769493976,-87.70807542420047,1578
Cottage Grove Ave & 51st St,41.803032224217766,-87.60661106505253,1559
Rockwell St & Fletcher St,41.93993980150161,-87.69015275486609,1526
Monticello Ave & Irving Park Rd,41.953970995832655,-87.71906451359365,1523
Cottage Grove Ave & 47th St,41.80983880982338,-87.60674699783442,1438
Ashland Ave & Archer Ave,41.839171192625585,-87.665611591863,1438
Western Ave & Lunt Ave,42.00853795186883,-87.6904755506679,1427
N Sheffield Ave & W Wellington Ave,41.939826236867304,-87.65017355182393,1393
Western Ave & 21st St,41.85409002964208,-87.68584505570566,1382
Drake Ave & Montrose Ave,41.961158088294155,-87.71658895378148,1379
Prairie Ave & Garfield Blvd,41.794850051147264,-87.61872528607624,1371
Lincoln Ave & Roscoe St,41.94380291472894,-87.67124195348227,1342
Knox Ave & Montrose Ave,41.96064910107593,-87.74537578251237,1315
Cottage Grove Ave & 63rd St,41.780575862244625,-87.60597005139613,1311
South Shore Dr & 71st St,41.76641925967516,-87.56573105489814,1303
Woodlawn Ave & Lake Park Ave,41.81416200935906,-87.597036219957,1260
Loomis St & Archer Ave,41.841635706805924,-87.65745797684295,1260
Elston Ave & George St,41.93014634068442,-87.6900310655692,1258
Elizabeth St & Randolph St,41.880832959694374,-87.6597974063457,1242
Cottage Grove Ave & 43rd St,41.81659942756633,-87.60667457998925,1207
Western Ave & Granville Ave,41.994166047422844,-87.68944601398135,1203
Racine Ave & 35th St,41.830668718339226,-87.65619562096339,1195
South Shore Dr & 67th St,41.773647361182846,-87.56747396387087,1189
Central Park Ave & North Ave,41.90965724781242,-87.71660924214052,1184
MLK Jr Dr & Pershing Rd,41.824579874678754,-87.61678139218306,1181
Francisco Ave & Montrose Ave,41.960040373244574,-87.70003524050608,1162
Western Ave & Howard St,42.0189139805405,-87.69004690211376,1154
Kedzie Ave & Foster Ave,41.975673048012716,-87.70926844417235,1137
Eastlake Ter & Rogers Ave,42.02077893401283,-87.6650062717093,1134
Evanston Civic Center,42.05703612048965,-87.68656755489589,1124
State St & 29th St,41.84177532325068,-87.62698799210206,1121
Clinton St & Polk St,41.871454581286905,-87.6409478914062,1102
Central St & Girard Ave,42.0642019672449,-87.68616525798801,1085
Warren Park West,42.00178851294166,-87.68882837337196,1081
Keystone Ave & Fullerton Ave,41.92457899028799,-87.72786921433632,1072
Central St Metra,42.063299262587236,-87.69862534365708,1063
Clark St & Jarvis Ave,42.01596610357561,-87.67500123888105,1050
Malcolm X College Vaccination Site,41.87761245948708,-87.67389654097262,1036
California Ave & 21st St,41.85375411243514,-87.69560976504539,1032
Western Ave & Grace St,41.95001335343712,-87.6899311208007,1029
Racine Ave & 13th St,41.865045483946794,-87.65697607953943,1017
Cottage Grove Ave & Oakwood Blvd,41.82309250675593,-87.60713694132536,1011
Dorchester Ave & 49th St,41.80575839297911,-87.592470694537,998
Calumet Ave & 51st St,41.802225610664316,-87.61811304564988,983
N Paulina St & Lincoln Ave,41.94016953610281,-87.67007064593382,965
Sawyer Ave & Irving Park Rd,41.95345136670605,-87.70930304387029,964
Normal Ave & Archer Ave,41.84954604373817,-87.64058493285847,949
California Ave & Lake St,41.884459809108805,-87.6963016184256,948
St. Louis Ave & Balmoral Ave,41.9801751609358,-87.716112628728,944
Kedzie Ave & Bryn Mawr Ave,41.9822434837332,-87.70889665152352,934
Elmwood Ave & Austin St,42.025779766451116,-87.68411117197734,926
Keystone Ave & Montrose Ave,41.96109136537681,-87.72898233038548,924
Warren Park East,42.00455729038047,-87.68064486404964,920
Dodge Ave & Church St,42.04817390434724,-87.6982900605958,915
Base - 2132 W Hubbard,41.902270823246496,-87.68776226668616,913
N Southport Ave & W Newport Ave,41.9402657854671,-87.66026106500145,905
Kedzie Ave & Lake St,41.88472146950695,-87.70633165945523,905
Kildare Ave & Montrose Ave,41.96099041218844,-87.73559708857053,896
Wood St & 35th St,41.8301199007692,-87.67031803834533,894
DuSable Museum,41.79166406868129,-87.60789864257228,890
Prairie Ave & 43rd St,41.8166642842836,-87.6194125192616,886
Bosworth Ave & Howard St,42.01953824836118,-87.66954002720497,886
Malcolm X College,41.877615438124494,-87.67389676972394,884
Budlong Woods Library,41.983669617557574,-87.6964184593886,875
Troy St & Grace St,41.9500095425941,-87.70985310845816,865
Clark St & Touhy Ave,42.01256795622948,-87.67432752280439,857
Leavitt St & Archer Ave,41.82876797466488,-87.68063554554422,807
Kedzie Ave & George St,41.93021796246259,-87.70984554602765,806
"2112 W Peterson Ave",41.991174417498165,-87.68359839476938,803
Western Ave & 24th St,41.8485824296241,-87.68519736739034,786
Ridge Blvd & Howard St,42.01926877521188,-87.68452961099223,783
Kedzie Ave & Chicago Ave,41.895470826377874,-87.70615289332282,782
Dorchester Ave & 63rd St,41.780629410920646,-87.59155223176266,772
Washtenaw Ave & Ogden Ave,41.86192393413347,-87.69348008245542,757
Francisco Ave & Bloomingdale Ave,41.910150876708926,-87.6999779832213,739
N Shore Channel Trail & Argyle St,41.970105800635466,-87.7001361933817,729
Elston Ave & Henderson St,41.940087654646774,-87.70004950021479,720
Ridge Blvd & Touhy Ave,42.012133279838864,-87.68292272997047,714
Princeton Ave & 47th St,41.80932571488925,-87.63345711539046,697
Damen Ave & Coulter St,41.8491975948347,-87.67564362983549,695
MTV Hubbard St,41.889978199119724,-87.68003118680141,694
Eastlake Ter & Howard St,42.01919527673029,-87.66431461273392,686
California Ave & 23rd Pl,41.849118317422075,-87.69514251205463,685
State St & 95th St,41.722030598857806,-87.62317959517739,682
Western Ave & Gunnison St,41.96998355323319,-87.68997893113756,674
Conservatory Dr & Lake St,41.88549626522116,-87.71685952638995,671
W Washington Blvd & N Peoria St,41.88015245237386,-87.64999925592919,669
Long & Irving Park,41.95008988377674,-87.76006379802685,669
Kedzie Ave & 48th Pl,41.80008541992813,-87.70007418862804,663
Western Ave & Berteau Ave,41.959897788777724,-87.68992394194504,660
Milwaukee Ave & Cuyler Ave,41.95447363533886,-87.74959478140133,660
Sacramento Blvd & Addison St,41.94972706900143,-87.7002086448949,658
Central Park Ave & Ogden Ave,41.85397240676367,-87.71511104118801,653
Valli Produce - Evanston Plaza,42.03972347609778,-87.69942279344974,643
Pulaski Rd & 51st St,41.800012028189066,-87.72013385224473,642
"63rd St Beach",41.780916450383316,-87.57631862165059,634
California Ave & Francis Pl,41.91852678958733,-87.69744916617589,628
Rockwell St & Cermak Rd,41.85008433050951,-87.69003115312172,627
Maplewood Ave & Peterson Ave,41.99023646668209,-87.69337211330256,613
Narragansett & Wrightwood,41.92994142762015,-87.78989635961118,599
Washtenaw Ave & Polk St,41.870093590186904,-87.69031098209604,585
MLK Jr Dr & 47th St,41.809849840156446,-87.61629314473653,579
Oakley Ave & Touhy Ave,42.01234110812417,-87.68825018218784,568
Pulaski Rd & Eddy St (Temp),41.94600407572,-87.73103477945507,548
N Damen Ave & W Chicago Ave,41.89943004787138,-87.67971978280667,539
Wentworth Ave & Cermak Rd*,41.85318910037143,-87.63186861910549,534
Loomis St & Lexington St*,41.872174077042516,-87.66153087015199,532
State St & 79th St,41.7507931354991,-87.62443050056429,524
Lincolnwood Dr & Central St,42.06481423045956,-87.71531043857745,518
Dodge Ave & Main St,42.034524962835256,-87.6993316980539,514
Kilbourn Ave & Irving Park Rd,41.95378560016261,-87.74046672177828,510
California Ave & Winona St,41.97013121797229,-87.69993969127165,505
Jeffery Blvd & 67th St,41.77343527696967,-87.57731115428365,504
Whipple/Irving Park,41.95016267747849,-87.70016999814462,488
Lincoln Ave & Balmoral Ave,41.979972769254935,-87.69015426798022,474
Green St & Madison Ave*,41.88184225598028,-87.64884613217289,461
Lockwood Ave & Wrightwood Ave,41.92995188746045,-87.75996445414928,457
Archer (Damen) Ave & 37th St,41.82671404246769,-87.68314914208405,456
Wolcott Ave & Fargo Ave,42.01695687441994,-87.67772721452687,450
Burnham Greenway & 112th St,41.69177125176347,-87.53043786007659,445
Fairfield Ave & Roosevelt Rd,41.866631979040605,-87.69452030164058,444
Campbell Ave & Irving Park Rd,41.95013060773426,-87.6900291223044,441
Harlem & Irving Park,41.950133667692086,-87.80988315240438,438
Lincoln Ave & Byron St,41.950674095511964,-87.67922648544742,437
Halsted St & 37th St,41.827072922643374,-87.64571821682848,433
South Shore Dr & 74th St,41.7622178193792,-87.55923723077022,431
Kedzie Ave & 21st St,41.8540280102302,-87.70486300860915,431
Wentworth Ave & 63rd St,41.78008035098384,-87.6297635714093,430
Jeffery Blvd & 71st St,41.76662821345185,-87.57644594425399,430
Ashland Ave & McDowell Ave,41.8088694650632,-87.66453624539186,429
Stony Island Ave & 64th St,41.779267135441856,-87.5868318026297,427
Dodge Ave & Mulford St,42.0235425983349,-87.69960808590662,427
MLK Jr Dr & 56th St,41.793441826896704,-87.61585497008787,426
Albany Ave & Belmont Ave,41.93998296737265,-87.70974378648566,425
MLK Jr Dr & 63rd St,41.78008441182284,-87.61594860740165,414
Chicago State University,41.7189645964489,-87.60834197465087,411
Austin Blvd & Madison St,41.88028761052116,-87.77446409122942,408
Stony Island Ave & 67th St,41.773457106137016,-87.58533448624877,402
Cottage Grove Ave & 67th St,41.773727361605985,-87.60563989898044,395
Kilpatrick Ave & Parker Ave,41.93001567282361,-87.74008438767675,387
Eberhart Ave & 61st St,41.78409492980601,-87.61449759725288,385
Sayre & Diversey,41.93002930530734,-87.80003053416276,382
Public Rack - Hamlin Ave & Fullerton Ave,41.92021207860692,-87.72003185731177,379
Central Park Ave & 24th St,41.84832986618705,-87.71493892929351,374
Stony Island Ave & 71st St,41.7664920761379,-87.5864635735368,373
Princeton Ave & Garfield Blvd,41.794979235313335,-87.63312293982698,368
Sacramento Blvd & Franklin Blvd,41.890614296006916,-87.70263296382565,366
Damen Ave & Pershing Rd,41.823194461818034,-87.67660642341028,361
Public Rack - Milwaukee Ave & Diversey Ave,41.93001139787298,-87.71000940507551,359
Wabash Ave & 87th St,41.73654186420187,-87.62259115882308,356
Lincoln Ave & Peterson Ave,41.99000732475356,-87.7099539450771,356
Kenosha & Wellington,41.93012525369698,-87.73010657243935,354
Halsted St & 47th Pl,41.80850903451353,-87.64602333916966,347
Austin Blvd & Lake St,41.88793713806976,-87.77436753792446,343
Kedzie Ave & 57th St,41.78999721045585,-87.7000556596955,341
Kilbourn Ave & Milwaukee Ave,41.94706964481855,-87.73999164326227,340
Western Blvd & 48th Pl,41.805663948116184,-87.68338656741282,339
Narragansett & Irving Park,41.950015339440746,-87.7899722382258,339
Union Ave & Root St,41.819123204347115,-87.64328532461603,337
Stony Island Ave & 75th St,41.75867246595858,-87.5868965810553,334
Indiana Ave & 40th St,41.82167793477253,-87.62152888858223,333
Public Rack - Kostner Ave & Armitage Ave,41.9198731864358,-87.73983189423244,332
Halsted St & 96th St,41.71995497278981,-87.64314559468035,329
Millard Ave & 26th St,41.84454399760605,-87.71596315225062,327
California Ave & 26th St,41.84369660310281,-87.69494517749796,324
Cottage Grove Ave & 83rd St,41.743445236665686,-87.60484757952514,323
Lamon Ave & Belmont Ave,41.93996325868275,-87.74997517157692,312
Kilbourn & Roscoe,41.9401497128108,-87.73997508983807,310
Halsted St & 51st St,41.80181315198811,-87.64521985015811,306
Western Ave & 111th St,41.6912139549076,-87.68130036145865,304
Central Ave & Chicago Ave,41.894958995165645,-87.76490441657818,298
Eggleston Ave & 69th St,41.768867529886386,-87.63593049594839,296
Kostner Ave & Adams St,41.877919448632596,-87.73594335266316,294
Hoyne Ave & 47th St,41.80822487351448,-87.67718780921724,276
Ashland Ave & Pershing Rd,41.82345851601816,-87.66558020276715,275
Perry Ave & 69th St,41.76928777884306,-87.62820435840939,274
Kedzie Ave & Roosevelt Rd,41.86650900027659,-87.70649035802862,272
Kostner Ave & Wrightwood Ave,41.92994703628656,-87.73989686834354,270
Ping Tom Park (East),41.85996707053211,-87.63003821882018,265
Phillips Ave & 79th St,41.751821082978616,-87.56521460241511,265
Central Ave & Roscoe St,41.94005976626614,-87.7699177811423,263
Lawler Ave & 50th St,41.800049598129704,-87.74997610148472,262
Big Marsh Park,41.68587750142573,-87.57381135926126,260
Albany Ave & 26th St,41.84474559303548,-87.70198726127569,260
May St & 69th St,41.768947105540974,-87.65293884586123,252
Public Rack - California Ave & Cortez St,41.9000063933398,-87.6999346624604,250
Rockwell St & Archer Ave,41.820190971236215,-87.6899816932185,244
Damen Ave & 59th St,41.78597461675818,-87.67415791544767,240
Wentworth Ave & 24th St,41.850073885128126,-87.63215686429925,237
Shields Ave & 43rd St,41.81620172949259,-87.6347099974323,234
Public Rack - Lawndale Ave & Diversey Ave,41.930049542802166,-87.71998014893299,229
Kedzie Ave & 24th St,41.84820033947218,-87.70542831843227,229
Lavergne & Fullerton,41.9200527261082,-87.75001575535556,225
Exchange Ave & 79th St,41.75172827958904,-87.55281287977745,223
Washtenaw Ave & Peterson Ave,41.99001927087863,-87.69991981916853,220
Narragansett Ave & School St,41.94000345755594,-87.78990292639743,220
Maryland Ave & 104th St,41.70997970122883,-87.60001336866361,217
Public Rack - Christiana Ave & Belmont Ave,41.939988349948955,-87.71002846144245,216
Public Rack - Hamlin Ave & Montrose Ave,41.96003007487322,-87.72006460371192,213
Walden Pkwy & 100th St,41.71254441716736,-87.6678523470587,209
Public Rack - Washtenaw Ave & Superior St,41.890525172765635,-87.69476034890288,209
Yates Blvd & 75th St,41.75874357416339,-87.56643424333816,208
Public Rack - Washtenaw Ave & Devon Ave,41.99995540593721,-87.69994585456071,207
Public Rack - Spaulding Ave & Evergreen Ave,41.909885877262376,-87.709991429634,207
Public Rack - Lowell Ave & Elston Ave,41.969904124748844,-87.73992397580187,207
Halsted & 63rd - Kennedy-King Vaccination Site,41.77986971308511,-87.64475681490221,206
Calumet Park,41.71371059783373,-87.53084211835345,204
Commercial Ave & 130th St,41.65911088897738,-87.55074556178097,203
Burnham Greenway & 105th St,41.704585241550696,-87.52826400706749,203
Public Rack - Spaulding Ave & North Ave,41.91000125632993,-87.70998398995647,201
Evans Ave & 75th St,41.75849706632177,-87.60642241845781,201
Rainbow Beach,41.75851809284147,-87.5497931596618,200
N Clark St & W Elm St,41.900123082329856,-87.63007105044807,200
Marshfield Ave & 44th St,41.81400155654542,-87.66661384597319,198
Austin Blvd & Chicago Ave,41.894871203678555,-87.77465473828609,198
Cottage Grove Ave & 71st St,41.76572405876291,-87.60498973138286,196
State St & 54th St,41.79726575601031,-87.62585648951432,195
Public Rack - Pulaski Rd & Armitage Ave,41.91994146126501,-87.72994070220311,195
Harding Ave & 26th St,41.84004698408215,-87.72003460155362,195
Western Ave & 104th St,41.70459655973398,-87.68117870326166,192
Lawndale Ave & 30th St,41.839953987605995,-87.7198688426664,192
Komensky Ave & 31st St,41.83982860077267,-87.72977333342853,192
Vernon Ave & 79th St,41.7509467474245,-87.61378965413667,190
Racine Ave & Garfield Blvd,41.79420811629994,-87.65534181826838,190
Public Rack - Kedzie Ave & Argyle St,41.970110342754445,-87.70994162330489,190
Stony Island Ave & 82nd St,41.746561392567315,-87.58599764029807,181
Public Rack - Cicero Ave & Wrightwood Ave,41.929944120880386,-87.74991027553959,181
Greenwood Ave & 97th St,41.719716787466055,-87.59764981431846,181
Mulligan Ave & Wellington Ave,41.93000000000009,-87.78000000000027,179
Ashland Ave & 50th St,41.80301419725146,-87.66469410237632,179
Elizabeth St & 59th St,41.78982610445283,-87.65469986486815,178
Central Ave & Lake St,41.88766548733516,-87.76546570850182,178
Fullerton & Monitor,41.92004179266865,-87.77002447245502,173
Elizabeth St & 92nd St,41.72681648624234,-87.65429583081004,171
Kilpatrick Ave & Grand Ave,41.91003154215677,-87.74004097058805,170
Campbell Ave & Montrose Ave (Temp),41.96153488035078,-87.6929628792835,170
Pulaski Rd & 21st St,41.850122245443885,-87.72016186231339,169
Richmond St & Lincoln Ave,41.98993067283914,-87.7001275051649,168
Stewart Ave & 83rd St,41.74371395163476,-87.63408850028749,167
Long Ave & Belmont Ave,41.939949470843246,-87.7600499193034,166
Indiana Ave & 103rd St,41.707167961598614,-87.61841694129998,165
Dauphin Ave & 87th St,41.73653302291922,-87.60126167820125,165
Central Ave & Madison St,41.88012288731923,-87.76323472998362,165
Halsted St & 78th St,41.75251014589391,-87.6437774493261,164
Vernon Ave & 75th St,41.75836343540499,-87.6141375786587,163
Public Rack - Milwaukee Ave & Haussen Ct,41.93990355084447,-87.7200649058505,163
Cottage Grove Ave & 111th Pl,41.691695898891886,-87.61000218614626,163
Cicero Ave & Lake St,41.8868565793946,-87.7453188992986,163
Central Park Ave & Ohio St,41.8900462708958,-87.71991286060101,163
Laramie Ave & Madison St,41.88021566189923,-87.75536242516252,162
Fairfield Ave & 44th St,41.810157088518864,-87.69014208060634,160
Central Ave & Parker Ave,41.93000554439798,-87.76985438257529,160
State St & Pershing Rd,41.823026556248756,-87.626574117239,157
St Louis Ave & 59th St,41.78965861975157,-87.7100469305008,157
Pulaski Rd & Lake St,41.88539243975007,-87.7265490635683,156
Long Ave & Belden Ave,41.920087647015016,-87.76003068637196,156
Laramie Ave & Kinzie St,41.88782995215912,-87.75559295151396,155
Kedzie Ave & Harrison St,41.87361334804303,-87.70487706100566,152
Baltimore Ave & 87th St,41.737338455497756,-87.54850244736573,151
Prospect Sq & 91st St,41.72915995164675,-87.66783389457328,150
Kilbourn & Belden,41.92019899532005,-87.73991539691984,150
Kedzie Ave & 45th St,41.81003526138455,-87.70010764394907,150
Virginia Ave & Catalpa Ave,41.980083274337694,-87.70449510505374,149
Meade Ave & Diversey Ave,41.930017677738306,-87.77996955495097,149
Lawndale Ave & 111th St,41.69313962120167,-87.71211011703284,148
Kedzie Ave & 52nd St,41.799993801605545,-87.700023647558,147
Public Rack - Monticello Ave & Belmont Ave,41.939986132022746,-87.71997106379207,146
Commercial Ave & 83rd St,41.744617984860646,-87.55120664152759,146
Kostner Ave & Armitage Ave,41.92000000000005,-87.73999999999982,145
Homewood Ave & 115th St,41.68525996958002,-87.67103748761531,144
Major Taylor Trail & 115th St,41.68494175420332,-87.64529585970513,143
Hegewisch Metra Station,41.648519328951316,-87.54611836155799,142
Ashland Ave & Garfield Blvd,41.7928744613592,-87.66442640777476,142
Seeley Ave & Garfield Blvd,41.794098718853526,-87.67548423670674,141
Public Rack - Lockwood Ave & Diversey Ave,41.93001001785718,-87.7599932892859,140
Latrobe Ave & Chicago Ave,41.89473121726898,-87.75688405548107,140
Komensky Ave & 55th St,41.79002412172854,-87.72003093075699,140
Central Park Blvd & 5th Ave,41.87567555759233,-87.71547855960175,139
MLK Jr Dr & 83rd St,41.74310943049996,-87.61480326547094,138
Kedzie Ave & 110th St,41.692393075451704,-87.7009569101987,138
Sacramento Blvd & Fulton Ave,41.88979644029202,-87.70009521196847,137
Public Rack - Racine Ave & 109th Pl,41.690283728510884,-87.65012019324068,137
Stewart Ave & 63rd St,41.77983876775983,-87.63477440307602,136
St Louis Ave & Norman Bobbins Ave,41.790129553963205,-87.7100357849483,136
Kenton Ave & Madison St,41.88070138793626,-87.74100411422307,136
Houston Ave & 92nd St,41.728245305534585,-87.54968041268256,136
Jeffery Blvd & 76th St,41.75668591223475,-87.57662499398627,135
Kildare Ave & 47th St,41.80989326736324,-87.73003716874354,134
Ashland Ave & 63rd St,41.77937873317293,-87.66487374498494,133
Albany Ave & 16th St,41.85999999999994,-87.70000000000013,133
Lamon Ave & Armitage Ave,41.92000000000005,-87.75,132
Halsted St & 73rd St,41.76163786372713,-87.64410575192476,132
Western Ave & Lake St,41.88034981131051,-87.68969741725952,131
Western Ave & Ardmore Ave,41.98979388596172,-87.68998131170991,131
Summit Ave & 86th St,41.737848905472305,-87.64489930652914,130
Morgan St & Pershing Rd,41.82361915383582,-87.65092101225392,130
California & 16th St,41.85995886101023,-87.69975595583854,130
Halsted St & 111th St,41.6940421704259,-87.64255139672882,129
Artesian Ave & 55th St,41.79028119860979,-87.68970792579586,129
Pulaski Rd & Congress Pkwy,41.874412682356805,-87.72610187693186,128
Hale Ave & 107th St,41.69921152992102,-87.66889902861723,128
Sacramento Ave & Pershing Rd,41.819999999999986,-87.7000000000001,127
Public Rack - Milwaukee Ave & School St,41.94003524426507,-87.72975154965333,127
Rockwell St & 57th St,41.79000376058198,-87.68999130291006,126
Pulaski & Ann Lurie Pl,41.81994381068254,-87.72007633697609,126
Public Rack - Avers Ave & Irving Park Rd,41.950119665431124,-87.72037353646553,126
Halsted St & 63rd St,41.77940261363919,-87.6445104460323,124
East End Ave & 87th St,41.736857939179544,-87.5827616290435,123
Damen Ave & 51st St,41.80090469004921,-87.67467014601357,122
Hamlin Ave & 62nd Pl,41.77999855028928,-87.71996344361975,121
Cottage Grove Ave & 78th St,41.75317914083061,-87.60502420557494,120
Western & 28th - Velasquez Institute Vaccination Site,41.84124448028578,-87.68524002525787,119
Public Rack - Woodlawn Ave & 63rd St N,41.780035710592,-87.59973408064958,116
Stony Island Ave & 90th St,41.73139934341697,-87.58575389287708,115
Halsted St & 69th St,41.76905609145224,-87.64460753280434,115
Halsted St & 56th St,41.793486296285614,-87.64480214654505,115
Ellis Ave & 83rd St,41.74412685181741,-87.59905392344349,115
Cicero Ave & Grace St,41.94999179862601,-87.74989433314782,115
Oak Park & Wellington,41.930404473277235,-87.79963272960772,113
Francisco Ave & 47th St,41.809893566967546,-87.6997687309174,113
Cicero Ave & Quincy St,41.877614690094404,-87.74539826968729,113
Washtenaw Ave & Superior St,41.89,-87.69517857142853,112
Campbell Ave & Augusta Blvd,41.89975889065476,-87.68973181299403,112
Orange & Addison,41.940130539678684,-87.82011354351637,111
Dauphin Ave & 103rd St,41.70728364774201,-87.60763859196487,111
Avenue O & 118th St,41.68313163138176,-87.5392244841949,109
Archer Ave & 43rd St,41.819917072681996,-87.70004432529967,109
Torrence Ave & 106th St,41.70282466612753,-87.55977918699658,108
Loomis Blvd & 84th St,41.74118312467784,-87.65781397692068,108
Elizabeth St & 47th St,41.80839853537041,-87.65652825386422,108
Washtenaw Ave & Madison St,41.88000000000008,-87.68999999999991,107
Tripp Ave & 65th St,41.77027688633024,-87.72995647142656,107
Karlov Ave & Madison St,41.881829767068545,-87.72694223167609,107
Public Rack - Rockwell Ave & Touhy Ave ,42.01002119892464,-87.69995563772639,106
Phillips Ave & 83rd St,41.744531246273546,-87.56506285768867,106
Greenwood Ave & 91st St,41.72853380400801,-87.59728632932698,106
Public Rack - Kenton Ave & Palmer St,41.92003872881592,-87.74010581624748,105
Oglesby Ave & 100th St,41.71337841457235,-87.56585044873039,104
Public Rack - Keystone Ave & North Ave,41.90999754753716,-87.72996110188652,103
Avenue O & 134th St,41.65187494786013,-87.53977205053508,103
Vernon Ave & 107th St,41.700146637980765,-87.61228117625407,102
Monticello Ave & Chicago Ave,41.8998572354324,-87.71992497115848,101
Michigan Ave & 71st St,41.76529464303628,-87.62174606837942,101
Homan Ave & 65th St,41.77985648650503,-87.70994477418809,101
Stony Island Ave & South Chicago Ave,41.75117069130673,-87.58533620234022,100
Doty Ave & 111th St,41.6950461816526,-87.59884634903527,100
Hoyne Ave & 34th St,41.830060733020154,-87.67993472951528,99
Marquette Ave & 89th St,41.733679004043054,-87.55837451809725,98
Constance Ave & 95th St,41.72225304375045,-87.57896632386485,98
Pulaski Rd & 44th St,41.80999999999995,-87.72000000000006,97
Halsted St & 104th St,41.70515541384208,-87.6424255038003,97
Clyde Ave & 87th St,41.73716864910413,-87.57271738735857,97
Greenwood Ave & 79th St,41.751298814454906,-87.59752429007297,96
Vincennes Ave & 104th St,41.70493612188644,-87.65694777960645,95
Public Rack - Mozart Elementary School,41.9200136446211,-87.72002117940008,95
Martin Luther King Dr & 111th St,41.69014213253409,-87.61019657346581,93
Loomis St & 89th St,41.732421766420906,-87.65807053041549,93
California Ave & Marquette Rd,41.770017283154104,-87.69003607526865,93
Springfield Ave & 47th St,41.80993792620875,-87.72004079971069,91
Shabbona Park,41.94042374229308,-87.79994267560815,91
Public Rack - Harold Washington Park,41.800090091490894,-87.58040811890838,91
Francisco Ave & Hollywood Ave,41.98029556924076,-87.70010431091842,90
Kenneth Ave & 50th St,41.80015612211241,-87.73029550638185,89
Mozart St & Jackson Blvd,41.87997134280311,-87.69996998106048,88
Woodlawn Ave & 75th St,41.75916770483529,-87.59575124692329,87
Yates Blvd & 93rd St,41.72899571874207,-87.56772372657623,86
Vincennes Ave & 75th St,41.75796817343926,-87.6312093700469,85
State St & 76th St,41.75904203726269,-87.62669114986268,85
Hyde Park Blvd & 55th St,41.79882352941181,-87.58188235294115,85
Ewing Ave & Burnham Greenway,41.71248737158806,-87.53466283694364,85
Public Rack - Western Ave & Devon Ave,41.999968792714284,-87.68999813307128,84
Public Rack - Jensen Park,41.962135301587324,-87.72003127182543,84
Maplewood Ave & 59th St,41.789910998011884,-87.68993839570224,84
Kostner Ave & Lake St,41.88593046653818,-87.73539855071894,83
Eberhart Ave & 91st St,41.72928177043179,-87.61122764042463,83
Midway Orange Line,41.78999999999998,-87.73999999999985,82
Central Ave & Harrison St,41.87299921804876,-87.76450181169099,82
Public Rack - Nagle Ave & Belmont Ave,41.93990065656794,-87.78984719929628,81
Public Rack - Karlov Ave & Kamerling Ave,41.909837566415604,-87.72995496345251,81
Ashland Ave & 74th St,41.75922237955984,-87.66347795176122,80
Public Rack - Western Blvd & 49th St,41.80075757805911,-87.68009841139249,79
Mason Ave & Belmont Ave,41.93997859435447,-87.77003157664574,79
Throop St & 52nd St,41.79965966435895,-87.65719787244437,78
Public Rack - Woodlawn Ave & 63rd St - NE,41.78000000000006,-87.60000000000011,78
Public Rack - Christiana Ave & Archer Ave,41.81002426495722,-87.70997180128208,78
Central Park & Augusta Blvd,41.89988347115389,-87.71963655818806,78
Pulaski Rd & 60th St,41.780108839424294,-87.72006640398705,77
Base - 2132 W Hubbard Warehouse,41.89331252974459,-87.69218377984848,77
Public Rack - Western Ave & Jarvis Ave,42.01999999999999,-87.68999999999987,76
Public Rack - Pulaski Rd & 44th St,41.810107342464875,-87.72009933152636,76
Torrence Ave & 126th Pl,41.666305419390696,-87.55720751742861,75
Public Rack - Rockwell & Division,41.90011605047561,-87.69009536840878,75
Nordica & Medill,41.920000000000044,-87.80000000000011,75
Cicero Ave & Flournoy St,41.872136744524454,-87.74664071842662,75
Wabash Ave & 83rd St,41.74347853896641,-87.62282211909833,74
Pulaski Rd & Eddy St,41.94626702359819,-87.7310411738722,73
Oketo Ave & Addison St,41.94129839994524,-87.81007626873982,73
W 103rd St & S Avers Ave,41.709942172281714,-87.71995899240848,71
South Chicago Ave & 83rd St,41.74392579129111,-87.57522019816423,71
Public Rack - Keystone Ave & Irving Park Rd,41.95029712050233,-87.72999357861023,71
Calumet Ave & 71st St,41.765577388312835,-87.61697267823008,71
Public Rack - Sacramento Ave & Devon Ave,41.9999320547619,-87.70012758571418,70
Spaulding Ave & 63rd St,41.780000000000044,-87.71000000000002,69
Sacramento Blvd & Polk St,41.86999999999993,-87.6999999999999,69
Public Rack - California Ave & Touhy Ave - NW,42.01018565998071,-87.69999369527527,69
Kostner Ave & 63rd St,41.77994599116428,-87.73010738649747,69
Altgeld Gardens,41.65673171644948,-87.59880927583777,69
Major Taylor Trail & 124th St,41.668703697454255,-87.63713490877969,68
Bennett Ave & 79th St,41.75180507770587,-87.5785041853873,68
Ashland Ave & 78th St,41.75726272936863,-87.66464730812046,68
Racine Ave & 109th Pl,41.69000000000004,-87.64999999999993,67
Public Rack - Milwaukee Ave & Addison St,41.94994875673132,-87.73978936786553,67
Kildare & Cermak,41.84999999999995,-87.72999999999988,67
California Ave & 36th St,41.82999999999996,-87.68999999999991,67
Stony Island Ave & 63rd St,41.78008563076926,-87.58946743076925,65
Harlem Ave & Grace St,41.94983345934376,-87.80950476181772,64
Bloomingdale Ave & Harlem Ave,41.91003159739061,-87.80993366100007,64
Public Rack - Jonathan Y Scammon Public School,41.94008348176348,-87.73012600523647,62
Eberhart Ave & 131st St,41.661275328995515,-87.61219185108722,62
Woodlawn & 103rd - Olive Harvey Vaccination Site,41.71000000000002,-87.59000000000007,60
Public Rack - Champlain Ave & 65th St,41.77950567352221,-87.60992694521664,60
Meade Ave & Addison St,41.9497248218889,-87.77993232742783,60
Halsted St & 59th St,41.787554525875684,-87.64487550635027,59
Francisco Ave & Chicago Ave,41.897248827977435,-87.69911089072313,59
Commercial Ave & 100th St,41.71331536670531,-87.55111762952133,59
State St & 123rd St,41.67065599926655,-87.62264751905742,58
Central Park Ave & Douglas Blvd,41.86020422170688,-87.71964421461489,58
Public Rack - Walden Pkwy & 103rd St,41.70981367578949,-87.66995838324564,57
Western Ave & 28th St,41.841521465849574,-87.68514555232797,56
Public Rack - State ST & 42nd St,41.81997765178571,-87.62993245833341,56
Public Rack - King Dr & 115th St,41.689757148809555,-87.61017919940477,56
NewHastings,41.91742450286904,-87.68396214325594,56
Western Blvd & 49th St,41.80309090909089,-87.67999999999999,55
Laramie Ave & Gladys Ave,41.8768804406606,-87.75582792538795,55
Kildare Ave & 55th St,41.790120582375735,-87.73002036676966,55
Homan Ave & Fillmore St,41.86999999999994,-87.71000000000002,54
Racine Ave & 61st St,41.78318743491196,-87.65436904820754,53
La Villita Park (Albany/30th),41.83994513475471,-87.70015510164144,53
Sacramento Ave & 25th St,41.84986927243586,-87.70000733974354,52
Rhodes Ave & 71st St,41.76600510893592,-87.6117241844744,52
Olive Harvey College,41.70956289493706,-87.59022602680542,52
Narragansett & McLean,41.919920610365416,-87.7899053058269,52
Richmond St & 59th St,41.789999999999985,-87.69999999999993,51
Racine Ave & 65th St,41.777555087339834,-87.65428238098696,51
Public Rack - Kostner Ave & Diversey Ave,41.93033398474511,-87.73944188647707,51
Plainfield & Irving Park,41.95003844771244,-87.83006580065356,51
Harold Washington Park,41.799999999999976,-87.57999999999997,51
Roscoe & Harlem,41.940095761860036,-87.80982996837996,50
Marshfield Ave & 59th St,41.786806362566686,-87.66620334466005,50
Kildare Ave & 26th St,41.839999999999975,-87.72999999999998,50
Campbell Ave & 51st St,41.800074693553306,-87.68974032322005,50
Ashland Ave & 66th St,41.77407359454,-87.66378994503995,50
Public Rack - Hoyne Ave & 110th Pl,41.69017531972793,-87.67032505782316,49
Public Rack - Hamlin Ave & Grand Ave,41.900000000000034,-87.71999999999991,49
Lamon Ave & Chicago Ave,41.89949308473473,-87.74996365089794,49
Christiana Ave & Archer Ave,41.80999999999997,-87.71000000000002,49
Public Rack - McCormick Blvd & Devon Ave,42.0,-87.71000000000002,48
Public Rack - Cicero Ave & Roscoe St,41.94000000000004,-87.75,48
Public Rack - Loomis St & 87th St,41.74,-87.65999999999995,47
Public Rack - California Ave & Devon Ave - NW,41.999907435063825,-87.69998025170206,47
Public Rack - Austin Ave & Roscoe St,41.94000000000004,-87.7800000000001,47
Hastings LWS,41.85999999999996,-87.67999999999994,47
Ada St & 113th St,41.69273787315208,-87.65732723003448,47
Public Rack - Kilbourn Ave & Fullerton Ave,41.92000000000003,-87.7399999999999,46
Kildare Ave & Chicago Ave,41.899211327797126,-87.73062076463042,46
Kedzie Ave & 104th St,41.70008183695655,-87.70002902173907,46
Hyde Park Blvd & 53rd St,41.79999999999997,-87.58065217391301,46
Public Rack - Sawyer Ave & Lawrence Ave,41.96996332222224,-87.70999361481485,45
Major Ave & Bloomingdale Ave,41.910000000000025,-87.77,45
Public Rack - Pulaski Rd & Fullerton Ave,41.92020874732578,-87.72989663261365,44
Public Rack - Calumet Ave & 51st St,41.80009955384088,-87.61992672445446,44
Long Ave & North Ave,41.90996317095457,-87.76004183390918,44
Public Rack - Kimball Ave & Carmen Ave,41.97045854017831,-87.7103904066357,43
Public Rack - Fullerton Ave & Narragansett Ave,41.92008240588375,-87.78989719911625,43
Public Rack - Christiana Ave & Lawrence Ave,41.97000000000002,-87.71000000000002,43
Public Rack - Avondale Ave & Addison St,41.9499213914729,-87.71999904263558,43
Whipple St & Roosevelt Rd,41.869999999999955,-87.69999999999993,42
Steelworkers Park,41.739854555650794,-87.5300613744207,42
Spaulding Ave & 16th St,41.859999999999964,-87.71000000000002,42
Robert Fulton Elementary School,41.79999999999997,-87.67000000000004,42
Tripp Ave & 31st St,41.83985106853657,-87.73002338629269,41
Public Rack - Hyde Park Blvd & 55th St,41.797938508634125,-87.58031260478045,41
Michigan Ave & 114th St,41.68701734194594,-87.62108299699223,41
Lafayette Ave & 95th St,41.72000000000002,-87.62174999999995,40
Kimbark Ave & 67th St,41.76999999999999,-87.59000000000005,40
Public Rack - Campbell Ave & Pratt Blvd,42.01,-87.69000000000004,39
Bradley Park,41.71793758788994,-87.5644796757631,39
Public Rack - Eli Whitney Public School,41.8400021591842,-87.72935775368421,38
Leamington Ave & Hirsch St,41.91000000000002,-87.75026315789474,38
Damen Ave & 33rd St,41.83010799999998,-87.67987466666663,38
Public Rack - Spaulding Ave & Bryn Mawr Ave,41.980239554054066,-87.7101091756757,37
Damen Ave & 74th St,41.759277940728445,-87.67364605764837,37
Albany Ave & Douglas Blvd,41.85999999999997,-87.69999999999996,37
Public Rack - Prairie Ave & 47th St ,41.80999999999997,-87.61999999999993,36
Public Rack - Lorel Ave & Grand Ave,41.919934083333345,-87.75998832407414,36
Public Rack - Kildare Ave & Division St,41.90000000000002,-87.73,36
Public Rack - Karlov Ave & Milwaukee Ave,41.94000000000003,-87.73,36
Public Rack - Chopin Park,41.94000000000003,-87.76000000000008,36
Public Rack - Austin Ave & Wrightwood Ave,41.92993218055556,-87.77987959722228,36
Hamlin Ave & Grand Ave,41.90177300632408,-87.72070067263888,36
Troy St & Jackson Blvd,41.87985669994288,-87.70027430331426,35
Public Rack - Lake Shore Dr & Hayes Dr,41.78001767622855,-87.5701275520286,35
Public Rack - California Ave & Ogden Ave,41.85999999999998,-87.69999999999996,35
Lawndale Ave & 16th St,41.85987417497143,-87.7196725122857,35
Carpenter St & 63rd St,41.77988410000002,-87.65090663333338,35
Public Rack - Spaulding Ave & Foster Ave,41.98000000000001,-87.71000000000002,34
Public Rack - Laramie Ave & Fullerton Ave,41.920000000000016,-87.76000000000008,34
Public Rack - Laramie Ave & Belmont Ave,41.94000000000003,-87.75941176470594,34
Nagle Ave & Belmont Ave,41.94000000000003,-87.78999999999998,34
Homewood Ave & Monterey Ave,41.69000000000003,-87.67000000000003,34
Tripp Ave & 15th St,41.860042095959585,-87.73008252525253,33
Pulaski Rd & 51st Rd,41.799999999999976,-87.71999999999996,33
Public Rack - Menard Ave & Dakin St - midblock,41.95021643469699,-87.7702307051111,33
Parkside Ave & Armitage Ave,41.91943655661616,-87.76949152348486,33
Wood St & 47th St,41.80999999999997,-87.67000000000003,32
Troy Ave & 27th St,41.840250411458335,-87.70038253645833,32
Public Rack - Drake Ave & Leland Ave,41.97000000000002,-87.71999999999996,32
North Ave & New England Ave,41.90995607596875,-87.7998207176146,32
Kedzie Ave & 61st Pl,41.77999999999998,-87.69999999999997,32
Rockwell St & 63rd St,41.779962798096754,-87.6899546984839,31
Public Rack - Lafayette Ave & 95th St,41.720373743795705,-87.62349003278491,31
Public Rack - Halsted St & 95th St - SE,41.72004291397851,-87.64019486021508,31
Milwaukee Ave & Diversey Ave,41.93,-87.71000000000002,31
Public Rack - Sacramento Ave & Greenleaf Ave,42.01,-87.69999999999999,30
Public Rack - Penn Elementary School / KIPP Ascend Middle School,41.85999999999999,-87.71999999999997,30
Augusta Blvd & Laramie Ave,41.89973030543333,-87.75909919883334,30
Kenton Ave & Palmer St,41.92,-87.73999999999995,29
Public Rack - St Louis Ave & Berteau Ave,41.959936601190485,-87.71983555357141,28
Loomis St & 87th St,41.74,-87.66,28
Eggleston Ave & 92nd St,41.727773438662894,-87.63450548944094,28
Wentworth Ave & 104th St,41.70803741649255,-87.63137899034922,27
Public Rack - South Shore Dr & 71st St,41.76999999999999,-87.55999999999996,27
Public Rack - Kostner Ave & North Ave,41.90999999999999,-87.73999999999997,27
Public Rack - Hyde Park Blvd & 53rd St,41.79983617864197,-87.58156262465432,27
Public Rack - Western Ave & 96th St,41.71982054292308,-87.68021576730771,26
Public Rack - Tripp Ave & North Ave,41.90999317999998,-87.73021706139743,26
Public Rack - Laramie Ave & Grand Ave,41.91976140846153,-87.75970730376925,26
Public Rack - Cicero Ave & Cortland St - midblock,41.91949727111538,-87.74953077849999,26
Public Rack - California Ave & Devon Ave - NE,42.0,-87.70000000000002,26
Newcastle Ave & Belden Ave,41.919999999999995,-87.79999999999998,26
Public Rack - Midway Orange Line,41.78949441931999,-87.73977513903999,25
Public Rack - Kimbark Ave & 67th St,41.770165899999995,-87.59017791999997,25
Public Rack - Evans Ave & 63rd St,41.77999999999998,-87.60999999999996,25
Panama Ave & Grace St,41.95000000000002,-87.82999999999998,25
Lavergne Ave & 46th St,41.809999999999974,-87.75,25
Public Rack - Kedzie Ave & Archer Ave,41.809999999999974,-87.70000000000003,24
Public Rack - Kedvale Ave & Avondale Ave,41.95011615158335,-87.73004507183335,24
Walden Pkwy & 103rd St,41.710000000000015,-87.67000000000003,23
Public Rack - Komensky Ave & 31st St,41.840000000000025,-87.73,23
Public Rack - Grand Ave & North Ave,41.909999999999975,-87.73434782608696,23
Mozart Elementary School,41.91999999999999,-87.72000000000001,23
Lavergne Ave & Division St,41.899999999999984,-87.75,23
Public Rack - Cicero Ave & Altgeld St,41.92999999999998,-87.75,22
Keeler Ave & Roosevelt Rd,41.87,-87.73,22
Kedzie Ave & 54th St - SE,41.78999999999999,-87.70000000000003,22
S Wentworth Ave & W 111th St,41.6901241677143,-87.62991861957146,21
Public Rack - Throop St & 109th Pl,41.69000000000002,-87.65000000000003,21
Public Rack - Melvina Ave & Belmont Ave,41.94000000000002,-87.77999999999999,21
Public Rack - Cicero Ave & North Ave,41.90999999999998,-87.75,21
Marquette Ave & 79th St,41.75,-87.55999999999997,21
Western Ave & 62nd St,41.77999999999999,-87.68000000000004,20
South Chicago Ave & Elliot Ave,41.74734626666667,-87.58003425000001,20
Public Rack - Fairfield Ave & 63rd St,41.77999999999999,-87.69000000000003,20
Western Ave & 79th St,41.75,-87.68000000000004,19
Public Rack - Oketo Ave & Belmont Ave,41.93989856140352,-87.81010271929821,19
Public Rack - Cicero Ave & Wellington Ave,41.94000000000002,-87.75,19
Public Rack - Avers Ave & Ogden Ave,41.85000000000001,-87.72000000000001,19
Menard Ave & North Ave,41.90999999999998,-87.77,19
Kildare Ave & Division St,41.90101425778946,-87.7315082115263,19
Public Rack - Central Ave & George St,41.929999999999986,-87.77,18
Kedzie Ave & 63rd St,41.77999999999999,-87.70000000000003,18
Public Rack - Menard Ave & Grand Ave,41.92,-87.77,17
Public Rack - Chase Ave & Touhy Ave - NE,42.01,-87.69000000000003,17
Public Rack - California Ave & Marquette Rd,41.769999999999996,-87.69000000000003,17
Public Rack - Brainerd Park,41.730000000000004,-87.65000000000002,17
Pullman - Walmart,41.7,-87.59999999999998,16
Public Rack - Wood St & 103rd St,41.71,-87.67,16
Kedzie Ave & 58th St,41.79,-87.70000000000003,16
Kedzie Ave & 54th St - SW,41.8,-87.70000000000003,16
Hamlin Ave & Montrose Ave,41.96,-87.72000000000001,16
Cicero Ave & Wrightwood Ave,41.92999999999999,-87.75,16
Spaulding Ave & Evergreen Ave,41.90999999999998,-87.71000000000002,15
Public Rack - Woodlawn Ave & 63rd St - SE,41.77999999999999,-87.59999999999998,15
Public Rack - Western Ave & 47th Pl,41.809874288888885,-87.6803187777778,15
Public Rack - King Dr & Oakwood Blvd,41.82000000000001,-87.61999999999998,15
Menard Ave & Division St,41.90014823119999,-87.77003422766667,15
Cottage Grove Ave & 111th St,41.69000000000001,-87.60999999999997,15
"532 E 43rd St",41.82000000000001,-87.60999999999997,15
Public Rack - Pullman - Walmart,41.699789164714275,-87.59987701178571,14
Public Rack - Pulaski & 52nd,41.799794011428574,-87.72021166664287,14
Public Rack - Narragansett Ave & Fullerton Ave,41.92000000000001,-87.78142857142856,14
Public Rack - Lawndale Ave & 23rd St,41.849971648642864,-87.71950577935715,14
Public Rack - Kedvale Ave & Addison St,41.949999999999996,-87.73,14
Public Rack - 111th St - Morgan Park Metra,41.690000000000005,-87.66999999999999,14
Prairie Ave & 47th St - midblock,41.809999999999995,-87.61999999999999,14
N Narragansett Ave & Grand Ave,41.92000000000001,-87.7842857142857,14
Greenwood Ave & Lake Park Ave,41.82,-87.6,14
Avers Ave & Archer Ave,41.800000000000004,-87.72000000000001,14
S Aberdeen St & W 106th St,41.699999999999996,-87.65,13
Public Rack - Western Ave & 110th St,41.690000000000005,-87.68000000000004,13
Public Rack - N Narragansett Ave & Grand Ave,41.920197609000006,-87.78268856376923,13
Public Rack - Linder Ave & Belmont Ave,41.940000000000005,-87.76,13
Public Rack - Laramine Ave & Winnemac Ave,41.9709965863077,-87.75868486866668,13
Public Rack - Komensky Ave & 26th St,41.84000000000002,-87.73,13
Public Rack - Kildare Ave & North Ave,41.90998901846153,-87.73059238146153,13
Public Rack - Kedzie Ave & 61st Pl E,41.78019612461538,-87.70023832138463,13
Public Rack - Greenwood Ave & Lake Park Ave,41.82,-87.6,13
Public Rack - Christiana Ave & Bryn Mawr Ave,41.980000000000004,-87.71000000000002,13
Lawndale Ave & Diversey Ave,41.93,-87.72000000000001,13
Kolin Ave & Archer Ave,41.800000000000004,-87.73,13
Brandon Ave & 91st St,41.730000000000004,-87.54999999999997,13
Western Ave & 100th St,41.709999999999994,-87.68000000000002,12
Pulaski & 52nd,41.800000000000004,-87.72000000000001,12
Public Rack - Leclaire Ave & Division St,41.89999999999999,-87.75,12
Public Rack - Laramie Ave & Warwick Ave,41.949999999999996,-87.76,12
Public Rack - Kedzie Ave & 62nd Pl,41.780021254750004,-87.70136104855555,12
Public Rack - Kedzie Ave & 61st Pl W,41.779999999999994,-87.70000000000003,12
Public Rack - Eberhart Ave & 61st St,41.779999999999994,-87.61,12
Public Rack - Avers & Lawrence,41.96860926441666,-87.72365988330557,12
Monticello Ave & Belmont Ave,41.94,-87.72000000000001,12
Langley Ave & 79th St,41.75,-87.61,12
Abbott Park,41.720000000000006,-87.62,12
Western Ave & Jarvis Ave,42.019999999999996,-87.69000000000001,11
Racine Ave & 76th,41.76,-87.65181818181817,11
Pulaski Rd & Armitage Ave,41.92000000000001,-87.73,11
Public Rack - Wood St & 47th St,41.81,-87.66999999999997,11
Public Rack - Milwaukee Ave & Culyer Ave,41.949999999999996,-87.75,11
Public Rack - California & 71st,41.76300242072727,-87.69197292845455,11
Morgan St & 95th St,41.720000000000006,-87.64999999999999,11
Hamlin Ave & Fullerton Ave,41.92000000000001,-87.72000000000001,11
Bell Ave & 95th St,41.720000000000006,-87.68000000000002,11
Avenue L & 114th St,41.689638878787875,-87.53937036363635,11
Western Ave & 92nd Pl,41.730000000000004,-87.68000000000002,10
Public Rack - Pulaski Rd & 65th St,41.770363200000006,-87.72029288333334,10
Public Rack - Normal Ave & 111th St,41.69,-87.63899999999998,10
Public Rack - Neva Ave & Grand Ave,41.92036396550001,-87.80045265669999,10
Public Rack - Milwaukee Ave & Higgins Ave,41.9691721564,-87.7607552567,10
Public Rack - Kedzie Ave & 58th St,41.7898132668,-87.70039011720002,10
Public Rack - Francisco Ave & Touhy Ave,42.0107947407,-87.70049677620001,10
Public Rack - Central Ave & Corcoran Pl,41.88999999999999,-87.76899999999999,10
Public Rack - Ashland Ave & 83rd St,41.74,-87.65999999999998,10
Public Rack - 63rd Pl & Narraganssett Ave,41.778279581099994,-87.781034925,10
Milwaukee Ave & Haussen Ct,41.94,-87.72000000000001,10
Keystone Ave & North Ave,41.90999999999999,-87.73,10
Kedzie Ave & Pershing Rd,41.82,-87.70000000000002,10
Jonathan Y Scammon Public School,41.94,-87.73,10
Claremont Ave & 71st St,41.76,-87.68000000000002,10
Christiana Ave & 55th St,41.790000000000006,-87.71000000000001,10
Walden Pkwy & 99th St,41.71,-87.66999999999999,9
Talman Ave & 51st St - midblock,41.800000000000004,-87.69,9
Springfield Ave & 63rd St,41.78,-87.72000000000001,9
Public Rack - Winchester Ave & 87th St,41.73719321044444,-87.67137705055558,9
Public Rack - Western Ave & 92nd Pl,41.72901227681481,-87.68045135518518,9
Public Rack - Western Ave & 118th St,41.679540179,-87.680297966,9
Public Rack - Sayer & Northwest Hwy,41.99,-87.79999999999998,9
Public Rack - Rockwell & 111th St,41.69,-87.69,9
Public Rack - Pulaski Rd & Lake St,41.88951729355555,-87.72954698033334,9
Public Rack - Maplewood Ave & 47th St,41.81,-87.69,9
Public Rack - Longwood Dr & 111th St,41.69,-87.66999999999999,9
Public Rack - Baltimore Ave & 133rd St,41.65040405555555,-87.54966188888888,9
Public Rack - 532 E 43rd St,41.82,-87.61,9
Pubic Rack - Pulaski Rd & 41st,41.82,-87.72000000000001,9
Neva Ave & Grand Ave,41.92000000000001,-87.79999999999998,9
Lowell Ave & Elston Ave,41.97,-87.74,9
Komensky Ave & 59th St,41.79,-87.72000000000001,9
Kedzie Ave & Archer Ave,41.81,-87.70000000000002,9
Emerald Ave & 43rd St,41.82,-87.64111111111112,9
Divvy Valet - Oakwood Beach,41.82443827436925,-87.59813727632428,9
Cicero Ave & Wellington Ave,41.94,-87.75,9
California Ave & 29th St,41.84,-87.69,9
Wood St & 103rd St,41.71,-87.66999999999999,8
Western Ave & 111th St - NW,41.69,-87.68,8
S Michigan Ave & E 118th St,41.67998267825,-87.6200959045,8
Racine Ave & 74th St,41.76,-87.64999999999999,8
Public Rack - Stewart Ave & 123rd St,41.67000000000001,-87.63,8
Public Rack - Sawyer Ave & Bryn Mawr Ave - SW,41.98,-87.71000000000001,8
Public Rack - Pulaski & 74th,41.759662129875,-87.72029717737502,8
Public Rack - Lavergne & Lawrence,41.96868235666667,-87.751569965,8
Public Rack - Kostner Ave & Wrightwood Ave,41.93,-87.74,8
Public Rack - Kedvale Ave & Peterson Ave,41.990178821125,-87.73200321770835,8
Public Rack - Hamlin Ave & Madison St,41.88038733529167,-87.720288963,8
Public Rack - Fullerton Ave & Lavergne Ave,41.92051360787501,-87.7502298355,8
Public Rack - Exchange Ave & 73rd Pl,41.76,-87.56,8
Public Rack - Division St & Christiana Ave,41.900349250375,-87.710094806,8
Public Rack - Cumberland & Catherine,41.978214539875,-87.837801473625,8
Public Rack - Cottage Grove Ave & 87th St,41.74,-87.61,8
Public Rack - Colfax Ave & 83rd St,41.74,-87.56,8
Public Rack - Central Park Ave & Ogden Ave,41.85,-87.72000000000001,8
Public Rack - Central Ave & North Ave,41.91,-87.76875,8
Public Rack - Avers Ave & Archer Ave,41.800542903,-87.71994203800001,8
Public Rack - Ashland Ave & 76th St,41.759488948625,-87.66048969274999,8
Milwaukee Ave & Addison St,41.949999999999996,-87.74,8
Hoyne Ave & 110th Pl,41.69,-87.66999999999999,8
Halsted St & 76th St,41.76,-87.64,8
Cottage Grove Ave & 98th St,41.72,-87.60000000000001,8
Cottage Grove & 86th St,41.74,-87.60625,8
Albany Ave & 63rd St,41.78,-87.70000000000002,8
Pullman - Ross Dress for Less,41.699999999999996,-87.60000000000001,7
Pulaski Rd & Fullerton Ave,41.92000000000001,-87.73,7
Public Rack - Woodlawn Ave & 63rd St S,41.78000000000001,-87.60000000000001,7
Public Rack - Washington Park Ct & 51st St,41.80124764285714,-87.61721814285715,7
Public Rack - S Menard & W 63rd,41.779168047285715,-87.7690469672857,7
Public Rack - Pulaski Rd & Roosevelt Rd,41.87,-87.72142857142858,7
Public Rack - Prairie Ave & Garfield Blvd,41.79,-87.62,7
Public Rack - Marquette Rd & 67th St,41.77,-87.61,7
Public Rack - Linder & Elston,41.980514904761904,-87.76939085714285,7
Public Rack - Legler Regional Library,41.88,-87.73,7
Public Rack - Lawndale Ave & Polk St,41.87,-87.72000000000001,7
Public Rack - Kilpatrick & Elston,41.969975223714286,-87.74093291738096,7
Public Rack - Kedzie Ave & 54th St - SE,41.79,-87.70000000000002,7
Public Rack - Karlov Ave & 26th St,41.839999999999996,-87.73,7
Public Rack - Houston Ave & 131st St,41.659542833333326,-87.54976276190476,7
Public Rack - Homan Ave & 26th St,41.839999999999996,-87.71000000000001,7
Public Rack - Hamilton Ave & 95th St,41.71999999999999,-87.67999999999999,7
Public Rack - California Ave & Touhy Ave - SW,42.01,-87.70000000000002,7
Menard Ave & Dakin St - midblock,41.949999999999996,-87.77,7
Mayfield & Roosevelt Rd,41.87,-87.77,7
Kimball Ave & Carmen Ave,41.96999999999999,-87.71000000000001,7
Kedzie Ave & 64th St - SW,41.78000000000001,-87.70000000000002,7
Kedzie Ave & 24th St (Temp),41.84664944914285,-87.70496982090476,7
Damen Ave & 47th St,41.81,-87.67714285714285,7
Commercial Ave & 89th St,41.73,-87.54999999999998,7
Christiana Ave & Belmont Ave,41.94,-87.71000000000001,7
Washtenaw Ave & 63rd St,41.78,-87.69,6
Public Rack - Western Ave & 104th St - West,41.700641771166666,-87.68027675550002,6
Public Rack - Western Ave & 104th St - East,41.699999999999996,-87.68,6
Public Rack - Talman Ave & Pershing Rd,41.82,-87.69,6
Public Rack - Sawyer Ave & Bryn Mawr Ave - SE,41.98,-87.71,6
Public Rack - Sacramento Blvd & Division St,41.91,-87.7,6
Public Rack - Prairie Ave & Garfield Blvd S,41.792930194444445,-87.61931458333333,6
Public Rack - Parkside & Archer,41.79855913888888,-87.76115444444446,6
Public Rack - Nordica Ave & Addison St,41.94846477777778,-87.80116288888888,6
Public Rack - Milwaukee Ave & Pensacola Ave,41.95972039461112,-87.75167403833332,6
Public Rack - Michigan Ave & 96th St,41.719770208999996,-87.620118177,6
Public Rack - Marshfield Ave & 87th St,41.74,-87.65999999999998,6
Public Rack - Lotus Ave & Lawrence Ave,41.969218072833335,-87.76121331127779,6
Public Rack - Linder & 51st,41.79999521583333,-87.76000897733336,6
Public Rack - Lawndale Ave & 63rd St,41.78,-87.71166666666666,6
Public Rack - Langley Ave & 79th St,41.75019513888889,-87.60958602777778,6
Public Rack - Langley Ave & 49th St,41.80582366666667,-87.60986105555556,6
Public Rack - Komensky Ave & 63rd St,41.77978616666667,-87.72060708333333,6
Public Rack - Harvard Ave & 119th St,41.68,-87.63,6
Public Rack - Forrestville Ave & 47th St,41.81,-87.61,6
Public Rack - Damen & 81st,41.748855252999995,-87.67104666316668,6
Public Rack - Chase Ave & Touhy Ave - NW,42.01,-87.69,6
Public Rack - Brighton Park Branch Chicago Library,41.818333333333335,-87.7,6
Public Rack - Austin Blvd & North Ave,41.91,-87.77999999999999,6
Public Rack - Ashland Ave & 91st St,41.73,-87.65999999999998,6
Public Rack - 56th St & Mulligan Ave,41.79016153583333,-87.77996961199999,6
Martin Luther King Dr & 44th St,41.81,-87.62,6
Marshfield Ave & 45th St,41.81,-87.67,6
Longwood Dr & 111th St,41.69,-87.67,6
Lincoln Ave & Belmont Ave,41.939388022777784,-87.66828908605555,6
Harding Ave & 47th St,41.81,-87.72000000000001,6
Halsted St & 80th St,41.75,-87.64,6
Cottage Grove Ave & 87th St,41.74,-87.61,6
"111th St - Morgan Park Metra",41.69,-87.67,6
Winchester Ave & 87th St,41.74,-87.67,5
St Louis Ave & Berteau Ave,41.96,-87.72,5
Spaulding Ave & North Ave,41.91,-87.71,5
Rockwell & 111th St,41.69,-87.69,5
Public Rack - Western & 83rd,41.74071236666667,-87.6805603,5
Public Rack - S. Kilpatrick and W. 79th,41.74958896286667,-87.73978057366666,5
Public Rack - Pulaski Rd & Grenshaw St,41.87,-87.73,5
Public Rack - Peterson Ave & Bernard Ave,41.99,-87.72,5
Public Rack - Olmstead Ave & Oliphant Ave,42.00139146586667,-87.81826026026667,5
Public Rack - Newcastle Ave & Belden Ave,41.92,-87.8,5
Public Rack - Morgan St & 95th St,41.72,-87.65,5
Public Rack - Michigan Ave & 113th St,41.6897394676,-87.62018067460001,5
Public Rack - Lorel Ave & Chicago Ave,41.891999999999996,-87.76,5
Public Rack - Kildare Ave & 63rd St,41.7791043396,-87.7303227588,5
Public Rack - Kenton & Lawrence,41.969202578399994,-87.74128982866668,5
Public Rack - Kedzie Ave & 64th St - SW,41.78,-87.7,5
Public Rack - Irving Park Rd & Leclaire Ave,41.9513732624,-87.7519563198,5
Public Rack - Hermitage & 83rd St,41.74,-87.67,5
Public Rack - Hamlin Ave & Chicago Ave,41.9,-87.72,5
Public Rack - Cottage Grove & 86th St,41.739633504800004,-87.60095310679999,5
Public Rack - Cicero Ave & Le Moyne St - midblock,41.91,-87.75,5
Public Rack - Central Park Ave & Fillmore St,41.87,-87.71599999999998,5
Public Rack - Central Ave & Pensacola Ave,41.96000609006667,-87.76774422933333,5
Public Rack - Austin Ave & Wellington Ave,41.94,-87.78,5
Public Rack - Austin & 62nd,41.7797059608,-87.77117596666668,5
Public Rack - Albany Ave & 63rd St,41.779790257399995,-87.700102458,5
Oketo Ave & Belmont Ave,41.94,-87.81,5
Mt Greenwood Library - South,41.69,-87.7,5
Lafayette Ave & 87th St - SW,41.74,-87.63,5
Karlov Ave & Kamerling Ave,41.91,-87.73,5
Justine St & 87th St,41.74,-87.66,5
Indiana Ave & 133rd St,41.65,-87.62,5
Hiawatha Park,41.94,-87.83,5
Harriet E Sayre Public School,41.91,-87.8,5
Cottage Grove Ave & 75th St,41.76,-87.61,5
Cottage Grove & 85th St,41.74,-87.604,5
Cornell Dr & Hayes Dr,41.77894283333334,-87.58615946666666,5
Central Ave & Corcoran Pl,41.89,-87.77,5
California Ave & Pershing Rd,41.82,-87.69,5
Buffalo Ave & 89th St,41.73,-87.54,5
Avers Ave & Irving Park Rd,41.95,-87.72,5
"63rd & Western Ave - south corner",41.78,-87.68,5
"63rd & Western Ave - north corner",41.78,-87.68,5
Yates Blvd & Exchange Ave,41.767500000000005,-87.57,4
Western Ave & 118th St,41.68,-87.68,4
Western Ave & 111th St - SE,41.69,-87.68,4
Western Ave & 105th St,41.7,-87.68,4
WestChi,41.90779066666667,-87.73449858333333,4
Sawyer Ave & 111th St,41.69,-87.7,4
Rutherford Ave & Belmont Ave,41.94,-87.79,4
Pulaski Rd & 41st,41.82,-87.7225,4
Public Rack - Western Ave & 100th St,41.71,-87.68,4
Public Rack - Touhy Ave & Oconto Ave,42.011793106750005,-87.807593346,4
Public Rack - Stony Island & 87th St,41.74,-87.59,4
Public Rack - Robert Fulton Elementary School,41.8,-87.67,4
Public Rack - Pulaski Rd & 51st Rd,41.8,-87.72,4
Public Rack - Pulaski Rd & 15th St,41.86,-87.73,4
Public Rack - Perry Ave & 108th Pl,41.7,-87.63,4
Public Rack - Percy Julian HS,41.71,-87.65,4
Public Rack - Overhill Ave & Touhy Ave,42.01110412116667,-87.81931311241667,4
Public Rack - Northwest Hwy & Neva Ave,42.0,-87.81,4
Public Rack - Newcastle Ave & Belmont Ave,41.94,-87.8,4
Public Rack - Neva & Foster,41.971205302499996,-87.80899520050001,4
Public Rack - Natoma Ave & 61st St,41.780146501000004,-87.78939545025001,4
Public Rack - Mt Greenwood Library N,41.69,-87.7,4
Public Rack - Minuteman Park,41.78763045833333,-87.76129745833335,4
Public Rack - Meade Ave & Archer Ave,41.793009112,-87.772962575,4
Public Rack - Marshfield Ave & 45th St,41.811172216,-87.66810186875,4
Public Rack - Lockwood & Archer,41.798352951,-87.75758681175,4
Public Rack - Lawndale & 63rd St,41.78,-87.71,4
Public Rack - Laflin St & 51st St,41.80036238425,-87.66041230675,4
Public Rack - Lafayette Ave & 87th St - NW,41.74,-87.63,4
Public Rack - Kolin Ave & Archer Ave,41.8,-87.73,4
Public Rack - Kimball Ave & Lawrence Ave,41.968927625,-87.71166075,4
Public Rack - Kenneth Ave & 63rd St E,41.78,-87.73,4
Public Rack - Kedzie Ave & 54th St - SW,41.8,-87.7,4
Public Rack - Homan Ave & Roosevelt,41.869116272999996,-87.71029269825,4
Public Rack - Homan & 79th,41.75,-87.71,4
Public Rack - Holbrook St & Milwaukee Ave,41.99,-87.78,4
Public Rack - Harvey Ave & North Ave,41.91,-87.78,4
Public Rack - Harlem & Palatine,42.0,-87.81,4
Public Rack - Halsted St & 95th St - SW,41.72,-87.64,4
Public Rack - Halsted St & 64th St,41.78,-87.64,4
Public Rack - Forest Glen & Peterson,41.9899603355,-87.7407366265,4
Public Rack - Ewing Ave & 107th St,41.7,-87.54,4
Public Rack - Elston Ave & Kenneth Ave,41.97,-87.74,4
Public Rack - Cottage Grove & 85th St,41.74,-87.6,4
Public Rack - Commercial Ave & 89th St,41.73,-87.55,4
Public Rack - Christiana & Lincoln,41.99,-87.71,4
Public Rack - Central Park Ave & Fulton Blvd,41.89,-87.72,4
Public Rack - Central Park & Bryn Mawr,41.98,-87.72,4
Public Rack - California Ave & Pershing Rd,41.82,-87.69,4
Public Rack - Bell Ave & 95th St,41.72,-87.68,4
Public Rack - Baltimore Ave & 132nd St,41.657548473999995,-87.5485880315,4
Public Rack - Al Raby School,41.89,-87.71499999999999,4
Public Rack - 61st St & Melvina Ave,41.78,-87.78,4
Public  Rack - Albany Ave & 63rd St,41.78,-87.7,4
Morgan St & 87th St,41.74,-87.65,4
Menard Ave & Madison St,41.88,-87.77,4
Menard Ave & Agusta Blvd,41.9,-87.77,4
Mackinaw Ave & 106th St,41.7,-87.54,4
Laramie Ave & Belmont Ave,41.94,-87.76,4
Langley Ave & 105th Pl,41.7,-87.61,4
Kildare Ave & 63rd St,41.78,-87.73,4
Keystone Ave & Irving Park Rd,41.95,-87.73,4
Kedzie Ave & Argyle St,41.97,-87.71,4
Kedvale Ave & 63rd St,41.78,-87.73,4
Ingleside Ave & 79th St,41.75,-87.6,4
Harper Ave & 63rd St,41.78,-87.59,4
Ewing Ave & 96th St,41.72,-87.54,4
Ewing Ave & 105th St,41.7,-87.54,4
Eli Whitney Public School,41.84,-87.73,4
Cicero Ave & North Ave,41.91,-87.75,4
Cicero Ave & Altgeld St,41.93,-87.75,4
Calumet Ave & Garfield Blvd,41.79,-87.62,4
California Ave & Devon Ave - NE,42.0,-87.7,4
Bishop St & 46th St,41.81,-87.66,4
Archer Park,41.8,-87.74,4
Albany Ave & 111th St - NW,41.69,-87.7,4
Western Ave & 116th St,41.68,-87.68,3
Western Ave & 111th St - SW,41.69,-87.68,3
Western Ave & 106th St - East,41.7,-87.68,3
Torrence Ave  & 106th St,41.7,-87.56,3
Strohacker Park,41.79,-87.73,3
Sawyer Ave & Lawrence Ave,41.97,-87.71,3
Sawyer Ave & Bryn Mawr Ave - SE,41.98,-87.71,3
Rockwell Ave & Touhy Ave ,42.01,-87.7,3
Pulaski Rd & 40th St,41.82,-87.72333333333331,3
Public Rack - Zapata Academy,41.84,-87.73,3
Public Rack - Winona St & Elston Ave,41.97,-87.75,3
Public Rack - Western Ave & 98th St,41.71666666666667,-87.68,3
Public Rack - Western Ave & 79th St,41.75,-87.68,3
Public Rack - Western Ave & 111th St - SE,41.69,-87.68,3
Public Rack - Western Ave & 107th Pl,41.7,-87.68,3
Public Rack - Wentworth Ave & 79th St,41.75,-87.63,3
Public Rack - Wallace St & 119th St,41.68,-87.64,3
Public Rack - Vincennes Ave & 95th St,41.72,-87.65000000000002,3
Public Rack - Saginaw Ave & 93rd St,41.73,-87.56,3
Public Rack - S. New England/ W. 65th,41.77,-87.79,3
Public Rack - Rutherford Ave & Belmont Ave,41.94,-87.79,3
Public Rack - Racine Ave & 76th,41.76,-87.65000000000002,3
Public Rack - Racine Ave & 74th St,41.759804851333335,-87.65133887133334,3
Public Rack - Pullman - Planet Fitness,41.7,-87.59999999999998,3
Public Rack - Pulaski Rd & 5th Ave,41.87,-87.72666666666667,3
Public Rack - Pulaski Rd & 40th St,41.82,-87.71999999999998,3
Public Rack - Prairie Ave & Garfield Blvd N,41.79161726,-87.61960001466667,3
Public Rack - Parkside & 63rd,41.779412388888886,-87.76095466666668,3
Public Rack - Normandy Ave & Archer Ave,41.79,-87.79,3
Public Rack - Natoma Ave & Bryn Mawr Ave,41.98,-87.79,3
Public Rack - Mulligan Ave & 56th St,41.79031226833333,-87.77997815155555,3
Public Rack - Monticello & Lawrence,41.969400188,-87.71984289166669,3
Public Rack - Milwaukee Ave & Lawrence Ave,41.97,-87.76,3
Public Rack - Michigan Ave & 107th St,41.7,-87.62,3
Public Rack - Menard Ave & Belmont Ave,41.94,-87.77,3
Public Rack - Menard Ave & Agusta Blvd,41.9,-87.77,3
Public Rack - McVicker Ave & Grand Ave,41.92,-87.78000000000002,3
Public Rack - Mason & Archer,41.79,-87.77,3
Public Rack - Loomis Blvd & 47th St,41.80957229766667,-87.660034321,3
Public Rack - Leamington & Elston,41.97861616666666,-87.75753983333334,3
Public Rack - Lawrence Ave & Kimball Ave,41.97,-87.71,3
Public Rack - Latrobe Ave & Lake St,41.89,-87.76,3
Public Rack - Laporte Ave & Armitage Ave,41.92,-87.75,3
Public Rack - Lamon Ave & Erie St,41.89,-87.75,3
Public Rack - La Moyne Ave and Leamington Ave,41.91,-87.75,3
Public Rack - Kostner & Peterson,41.99,-87.74,3
Public Rack - Kostner & Bryn Mawr,41.98,-87.74,3
Public Rack - Kostner & 83rd,41.74069570866667,-87.730508712,3
Public Rack - Kingston Ave & 75th St,41.76,-87.56,3
Public Rack - King Dr & 71st St,41.77,-87.62,3
Public Rack - Kimbark Ave & 63rd St,41.78,-87.58999999999999,3
Public Rack - Kedzie Ave & Chicago Ave,41.9,-87.71,3
Public Rack - Kedzie Ave & 83rd St,41.741063833333335,-87.70073711111111,3
Public Rack - Kedzie Ave & 63rd St,41.78,-87.7,3
Public Rack - Kedzie Ave & 61st Pl,41.78,-87.7,3
Public Rack - Karlov Ave & Lawrence Ave,41.968809944444445,-87.73001394444445,3
Public Rack - Jeffery Blvd & 81st St,41.75,-87.57333333333332,3
Public Rack - Hoyne Ave & 51st St,41.8,-87.68,3
Public Rack - Homan Ave & Lake St,41.881560766,-87.710495526,3
Public Rack - Homan Ave & 62nd Pl,41.78,-87.71,3
Public Rack - Hiawatha Ave & Minnehaha Ave,42.0,-87.76,3
Public Rack - Harper Ave & 63rd St,41.78023461111111,-87.58931205555557,3
Public Rack - Harlem & Summerdale,41.98,-87.81,3
Public Rack - Halsted St & 76th St,41.76,-87.64,3
Public Rack - Halsted St & 113th St,41.689010481666664,-87.64162540899999,3
Public Rack - Halsted St & 111th St,41.690625868,-87.64082913566666,3
Public Rack - Halsted St & 102nd St,41.71,-87.64,3
Public Rack - Grand Ave & Lawndale Ave,41.9,-87.71999999999998,3
Public Rack - Garfield Park Conservatory,41.888838444444445,-87.71889988888888,3
Public Rack - Ewing Ave & 106th St,41.7,-87.54,3
Public Rack - Emerald Ave & 45th St,41.81,-87.64,3
Public Rack - Eggleston Ave & 115th St,41.69,-87.63,3
Public Rack - East End Ave & 87th St,41.74,-87.58,3
Public Rack - Damen & 87th,41.74,-87.67,3
Public Rack - Cottage Grove Ave & 92nd St,41.72911702299999,-87.60157551766667,3
Public Rack - Columbus & 79th,41.749749333333334,-87.70144911111112,3
Public Rack - Central Park Ave & 16th St,41.86,-87.71999999999998,3
Public Rack - Canfield & Victoria,41.98,-87.82,3
Public Rack - Buffalo Ave & 89th St,41.731108454,-87.54148724233335,3
Public Rack - Brandon Ave & 91st St,41.730062352666664,-87.54883860733332,3
Public Rack - Austin Branch Chicago Public Library,41.89,-87.77,3
Public Rack - Austin Ave & Archer Ave,41.79,-87.77,3
Public Rack - Austin & Higgins,41.97098273133333,-87.77928382066666,3
Public Rack - Ashland Ave & 71st St,41.77,-87.66000000000001,3
Public Rack - Ashland Ave & 63rd St,41.78,-87.66000000000001,3
Public Rack - Ashland Ave & 45th St,41.81,-87.66000000000001,3
Public Rack - 4810 Keeler Ave,41.96941500966667,-87.73099707300001,3
Pittsburgh Ave & Irving Park,41.95,-87.83,3
Piotrowski Park,41.84,-87.73,3
Milwaukee Ave & School St,41.94,-87.73,3
Laramie Ave & Grand Ave,41.92,-87.76,3
Laramie Ave & Fullerton Ave,41.92,-87.76,3
Kostner Ave & North Ave,41.91,-87.74,3
Kilbourn Ave & Fullerton Ave,41.92,-87.74,3
Kenneth Ave & 63rd St,41.78,-87.73333333333333,3
Kedzie Ave & 64th St - SE,41.78,-87.7,3
Kedvale Ave & Avondale Ave,41.95,-87.73,3
Homan Ave & 111th St,41.69,-87.71,3
Harvard Ave & 103rd St,41.71,-87.63,3
Hamlin Ave & Chicago Ave,41.9,-87.71999999999998,3
Halsted St & 95th St - SW,41.72,-87.64,3
Forrestville Ave & 47th St,41.81,-87.61,3
Evans Ave & 63rd St,41.78,-87.61,3
Emerald Ave & 45th St,41.81,-87.64333333333333,3
Cottage Grove Ave & 91st St,41.73,-87.59999999999998,3
Calumet Ave & 103rd St,41.71,-87.61666666666667,3
California Ave & Touhy Ave - NW,42.01,-87.7,3
Brighton Park Branch Chicago Library,41.81666666666666,-87.7,3
Avondale Ave & Addison St,41.95,-87.71999999999998,3
Austin Ave & Wrightwood Ave,41.93,-87.78000000000002,3
Austin Ave & Roscoe St,41.94,-87.78000000000002,3
Ashland Ave & 71st St,41.77,-87.66000000000001,3
"410",41.9,-87.69,3
Western Ave & 106th St - West,41.7,-87.68,2
Western Ave & 104th St - East,41.7,-87.68,2
WEST CHI-WATSON,41.92620341666667,-87.73522841666667,2
Throop St & 58th St,41.79,-87.66,2
Spaulding Ave & Foster Ave,41.98,-87.71,2
Sacramento Ave & Devon Ave,42.0,-87.7,2
Public Rack - Yale Ave & 119th St,41.68,-87.63,2
Public Rack - William J Onahan Public School,41.99,-87.79,2
Public Rack - Whipple St & 26th St,41.84,-87.7,2
Public Rack - Western Ave & 111th St - SW,41.690864712999996,-87.680906739,2
Public Rack - Western Ave & 107th St,41.7,-87.68,2
Public Rack - Western Ave & 106th St - West,41.7,-87.68,2
Public Rack - Walden Pkwy & 99th St,41.71,-87.67,2
Public Rack - Wabash Ave & 87th St,41.74,-87.62,2
Public Rack - Union Ave & 111th St,41.69,-87.64,2
Public Rack - Troy & 71st,41.76,-87.7,2
Public Rack - Throop St & 58th St,41.78933141666667,-87.65815783333333,2
Public Rack - St Louis & Lincoln,41.99791483333333,-87.71805733333333,2
Public Rack - Springfield Ave & Lawrence Ave,41.968256,-87.72565983333334,2
Public Rack - Springfield & 71st,41.76,-87.72,2
Public Rack - Richmond St & Thorndale Ave,41.99,-87.7,2
Public Rack - Pullman Community Center,41.7,-87.59,2
Public Rack - Pulaski Rd & Flournoy St,41.87,-87.725,2
Public Rack - Pulaski Rd & 83rd St,41.74,-87.72,2
Public Rack - Pittsburgh Ave & Irving Park,41.95,-87.83,2
Public Rack - Peterson Ave & Milwaukee Ave,41.99,-87.78,2
Public Rack - Peterson Ave & Drake Ave,41.99,-87.72,2
Public Rack - Perry Ave & 111th St,41.69,-87.63,2
Public Rack - Paxton Ave & 79th St,41.75,-87.57,2
Public Rack - Parnell Ave & 103rd St,41.71,-87.64,2
Public Rack - Oketo & Northwest Hwy,42.0,-87.81,2
Public Rack - Norwood Park,41.988289333333334,-87.79193758333334,2
Public Rack - Nordica & Archer,41.79,-87.8,2
Public Rack - Nina Ave & Avondale Ave,41.990557129500004,-87.799530947,2
Public Rack - Mt Greenwood Library - South,41.69,-87.7,2
Public Rack - Mont Clare Ave & Higgins Ave,41.98030133333333,-87.80752241666667,2
Public Rack - Minnehaha Ave & Devon Ave,42.0,-87.76,2
Public Rack - Milwaukee Ave & Kennedy Expy,41.970565,-87.76190125,2
Public Rack - Milwaukee Ave & Catalpa Ave,41.978608836999996,-87.769505689,2
Public Rack - Michele Clark Magnet High School,41.87,-87.75,2
Public Rack - Melvina Ave & Montrose Ave,41.96,-87.78,2
Public Rack - May St & 78th St,41.75,-87.65,2
Public Rack - Maplewood Ave & 63rd St,41.78,-87.69,2
Public Rack - Mango & Higgins,41.9707856035,-87.7712247465,2
Public Rack - Linder Ave & 64th Pl,41.775460303,-87.7580212355,2
Public Rack - Leoti Ave & Central Ave (south),42.0,-87.76,2
Public Rack - Leader & Caldwell,41.99075725,-87.75225425,2
Public Rack - Langley Ave & Oakwood Blvd,41.82,-87.61,2
Public Rack - Komensky Ave & 59th St,41.79,-87.72,2
Public Rack - King Dr & 83rd St,41.74,-87.61,2
Public Rack - Kimball & Ardmore,41.98852608333333,-87.71199333333334,2
Public Rack - Kedzie Ave & Walnut St,41.89,-87.71,2
Public Rack - Kedzie Ave & 64th St - SE,41.78,-87.7,2
Public Rack - Kedzie Ave & 60th St,41.79,-87.7,2
Public Rack - Kedzie & 103rd St - East,41.71,-87.7,2
Public Rack - Kedvale Ave & 26th St,41.84,-87.73,2
Public Rack - Justine St & 87th St,41.74,-87.66,2
Public Rack - Jeffrey Blvd & 71st St,41.766578138,-87.57626998399999,2
Public Rack - Irving Park Rd & Menard Ave,41.951602333333334,-87.77109949999999,2
Public Rack - Irving Park Rd & Austin Ave,41.951513803,-87.7785697125,2
Public Rack - Indiana Ave & 111th St,41.69,-87.62,2
Public Rack - Imlay & Milwaukee,41.99898458333333,-87.78955308333335,2
Public Rack - Houston Ave & 130th St,41.66,-87.55,2
Public Rack - Higgins Ave & Neva Ave,41.98,-87.81,2
Public Rack - Hiawatha Park,41.941936940999994,-87.8288279555,2
Public Rack - Harlem and W. 59th,41.784901500000004,-87.8010965,2
Public Rack - Halsted St & 63rd St,41.77986991666667,-87.64067466666667,2
Public Rack - Halsted St & 109th St,41.7,-87.64,2
Public Rack - Haft Ave & Milwaukee Ave,42.0,-87.79,2
Public Rack - Ewing Ave & 99th St,41.72,-87.54,2
Public Rack - Ewing Ave & 106th St NW,41.7,-87.54,2
Public Rack - Emerald Ave & 43rd St,41.818151916666665,-87.64228841666667,2
Public Rack - Delphina & Foster,41.97,-87.84,2
Public Rack - Damen Ave & 47th St,41.81,-87.68,2
Public Rack - Cottage Grove Ave & 98th St,41.72,-87.6,2
Public Rack - Cornell Ave & 87th Pl,41.74,-87.58,2
Public Rack - Claremont Ave & 71st St,41.76,-87.68,2
Public Rack - Christiana Ave & 55th St,41.79,-87.71,2
Public Rack - Central & Leland,41.97,-87.77,2
Public Rack - Central & Berteau,41.95843633333334,-87.76868425,2
Public Rack - Buffalo Ave & 133rd St,41.65,-87.54,2
Public Rack - Bishop St & 46th St,41.81,-87.66,2
Public Rack - Bensley Ave & 103rd St,41.71,-87.56,2
Public Rack - Avenue J & 102nd St,41.71,-87.53,2
Public Rack - Albany Ave & 111th St - NW,41.69,-87.7,2
Public Rack - 83rd Pl & Kedzie Ave N,41.74,-87.7,2
Public Rack - 63rd St and Nagle Ave,41.77760633333333,-87.78221375,2
Public Rack - 63rd & Western Ave S,41.78,-87.68,2
Public Rack - 63rd & Western Ave N,41.78,-87.68,2
Public Rack - 10557 S Western Ave,41.7,-87.68,2
Ozark Ave & Addison St,41.945,-87.82,2
Orville T Bright School,41.7,-87.56,2
Oleander Ave & Addison St,41.95,-87.82,2
Oglesby Ave & 95th St,41.72,-87.57,2
Newland Ave & Diversey Ave,41.93,-87.8,2
Narragansett Ave & Fullerton Ave,41.92,-87.78,2
Muskegon Ave & 89th St,41.73,-87.56,2
Mt Greenwood Library - North,41.69,-87.7,2
Michigan Ave & 119th St,41.68,-87.62,2
Mason Ave & Roosevelt Rd,41.87,-87.77,2
Maryland Ave & 87th ST,41.74,-87.6,2
Lowe Ave & 98th St,41.72,-87.64,2
Lorel Ave & Chicago Ave,41.89,-87.76,2
Lawrence Ave & 103rd St,41.71,-87.61,2
Latrobe Ave & Lake St,41.89,-87.76,2
Laflin St & 51st St,41.8,-87.66,2
Lafayette Ave & 87th St - NW,41.74,-87.63,2
Lafayette Ave & 119th St,41.68,-87.62,2
Jeffrey Blvd & 71st St,41.77,-87.58,2
Jeffery Blvd & 83rd St,41.74,-87.58,2
Houston Ave & 91st St,41.73,-87.55,2
Halsted St & 41st St,41.82,-87.65,2
Hale Ave & 111th St,41.69,-87.67,2
Green St & 103rd St,41.71,-87.64,2
Ewing Ave & Indianapolis Ave,41.71,-87.54,2
Ewing Ave & 112th St,41.69,-87.535,2
Ewing Ave & 106th St,41.7,-87.535,2
Ewing Ave & 101st St,41.71,-87.54,2
Ellis Ave & 132nd Pl,41.66,-87.6,2
Eggleston Ave & 114th St,41.69,-87.63,2
Colfax Ave & 83rd St,41.74,-87.56,2
Cicero Ave & Cortland St - midblock,41.92,-87.75,2
Chase Ave & Touhy Ave - NW,42.01,-87.69,2
Chappel Ave & 71st St,41.77,-87.57499999999999,2
Central Ave & George St,41.93,-87.77,2
California Ave & Devon Ave - NW,42.0,-87.7,2
Buffalo Ave & 133rd St,41.65,-87.54,2
Back of the Yards Park,41.805,-87.66,2
Avenue J & 112th St,41.69,-87.53,2
Avenue J & 106th St,41.7,-87.53,2
Ashland Ave & 76th St,41.76,-87.66,2
Ashland Ave & 45th St - midblock south,41.81,-87.66,2
Zapata Academy,41.84,-87.73,1
Yale Ave & 119th St,41.68,-87.63,1
William Rainey Harper High School,41.77,-87.67,1
Wentworth Ave & 103rd St,41.71,-87.63,1
Waller Ave & Chicago Ave,41.89,-87.77,1
Wallace St & 112 St,41.69,-87.64,1
Vincennes Ave & 95th Pl,41.72,-87.65,1
Tuley (Murray) Park,41.73,-87.61,1
Trumbull Ave & 111th St,41.69,-87.71,1
Troy & 111th St,41.69,-87.7,1
Stony Is Ave & 73rd St,41.76,-87.59,1
Stewart Ave & 123rd St,41.67,-87.63,1
State St & 47th st,41.81,-87.63,1
Spaulding Ave & Bryn Mawr Ave,41.98,-87.71,1
Sangamon St & 79th St,41.75,-87.65,1
Sacramento Blvd & Washington Blvd,41.88,-87.7,1
Sacramento Ave & Greenleaf Ave,42.01,-87.7,1
Rhodes Ave & 79th St,41.75,-87.61,1
Pullman Community Center,41.7,-87.59,1
Public Rack - Yates Ave & 100th St,41.71,-87.56,1
Public Rack - Western Ave & 116th St,41.68,-87.68,1
Public Rack - Western Ave & 111th St - NW,41.69,-87.68,1
Public Rack - Western Ave & 106th St - East,41.7,-87.68,1
Public Rack - West Chatham Park,41.75,-87.63,1
Public Rack - Talman Ave & 51st St,41.8,-87.69,1
Public Rack - St Louis & 83rd,41.74,-87.71,1
Public Rack - Spencer Elementary Technology Academy,41.89,-87.75,1
"Public Rack - Senka ""Edward Duke"" Park",41.79,-87.71,1
Public Rack - Sayre Ave & 59th St,41.78,-87.8,1
Public Rack - Sawyer Ave & Chicago Ave,41.9,-87.71,1
